,Stop_name,Line name ,City council,Zone,Stop_ID,Stop_lat,Stop_long,Distance,TotalAnnual,TotalAMPeak,TotalPMPeak,TotalWeekday,TotalWeekend,TotalOffpeak,AnnualPerIncrease,TotalAMPeakIncrease,TotalPMPeakIncrease,TotalOffPeakIncrease,year1819,Pax_annual1819,Pax_weekday1819,Pax_norm_weekday1819,Pax_sch_hol_weekday1819,Pax_Saturday1819,Pax_Sunday1819,Pax_pre_AM_peak1819,Pax_AM_peak1819,Pax_interpeak1819,Pax_PM_peak1819,Pax_PM_late1819,year1920,Pax_annual1920,Pax_weekday1920,Pax_norm_weekday1920,Pax_sch_hol_weekday1920,Pax_Saturday1920,Pax_Sunday1920,Pax_pre_AM_peak1920,Pax_AM_peak1920,Pax_interpeak1920,Pax_PM_peak1920,Pax_PM_late1920,year2021,Pax_annual2021,Pax_weekday2021,Pax_norm_weekday2021,Pax_sch_hol_weekday2021,Pax_Saturday2021,Pax_Sunday2021,Pax_pre_AM_peak2021,Pax_AM_peak2021,Pax_interpeak2021,Pax_PM_peak2021,Pax_PM_late2021,year2122,Pax_annual2122,Pax_weekday2122,Pax_norm_weekday2122,Pax_sch_hol_weekday2122,Pax_Saturday2122,Pax_Sunday2122,Pax_pre_AM_peak2122,Pax_AM_peak2122,Pax_interpeak2122,Pax_PM_peak2122,Pax_PM_late2122,year2223,Pax_annual2223,Pax_weekday2223,Pax_norm_weekday2223,Pax_sch_hol_weekday2223,Pax_Saturday2223,Pax_Sunday2223,Pax_pre_AM_peak2223,Pax_AM_peak2223,Pax_interpeak2223,Pax_PM_peak2223,Pax_PM_late2223
217,Southern Cross,City Loop,Melbourne C  ,1,22180.0,-37.81793643,144.9514112,1.3667941771830923,55256800.0,10800.0,117050.0,188700.0,168350.0,60750.0,55.967204478440216,69.56521739130434,100.0,165.51724137931035,FY18-19,19551450.0,68350.0,70650.0,59550.0,25200.0,19350.0,650.0,3450.0,10750.0,48000.0,7800.0,FY19-20,21503500.0,70500.0,72650.0,63400.0,39400.0,28950.0,1300.0,3950.0,13250.0,42400.0,11750.0,FY20-21,1292650.0,3450.0,3600.0,3050.0,3500.0,3050.0,100.0,450.0,650.0,1550.0,850.0,FY21-22,1966800.0,4650.0,4750.0,4300.0,7350.0,5750.0,100.0,550.0,700.0,2100.0,1250.0,FY22-23,10942400,35900,37050,31400,19550,16250,450,2400,6750,23000,4400
213,Flinders Street,City Loop,Melbourne C  ,1,19854.0,-37.81830513,144.9669643,0.0,50701000.0,9800.0,93050.0,165100.0,180000.0,62250.0,66.35935262785281,68.04123711340206,100.0,148.40085287846483,FY18-19,28320650.0,93050.0,94900.0,85900.0,52050.0,38750.0,1900.0,4850.0,16650.0,55250.0,16250.0,FY19-20,527250.0,1800.0,1850.0,1600.0,800.0,500.0,500.0,900.0,250.0,150.0,50.0,FY20-21,1378000.0,5050.0,5200.0,4450.0,1200.0,800.0,100.0,350.0,900.0,3400.0,450.0,FY21-22,1681700.0,6100.0,6450.0,4900.0,1650.0,1100.0,100.0,400.0,1100.0,4300.0,550.0,FY22-23,18793400,56800,56700,57200,47800,35350,1350,3300,11200,29950,10900
211,Melbourne Central,City Loop,Melbourne C  ,1,19842.0,-37.80993877,144.9625935,1.0064144476304728,24220550.0,3600.0,47650.0,85000.0,67900.0,34000.0,56.56330529090467,76.47058823529412,100.0,171.9512195121951,FY18-19,15250700.0,51500.0,53150.0,45000.0,23850.0,18950.0,300.0,1700.0,10400.0,30350.0,10450.0,FY19-20,184700.0,650.0,700.0,500.0,200.0,150.0,100.0,350.0,100.0,150.0,50.0,FY20-21,70900.0,250.0,250.0,200.0,150.0,100.0,50.0,100.0,50.0,50.0,50.0,FY21-22,87950.0,300.0,300.0,250.0,150.0,100.0,50.0,150.0,50.0,50.0,50.0,FY22-23,8626300,29000,30600,22700,13700,10550,250,1300,7100,17050,4950
214,Richmond,Inner city,Yarra C  ,1,19908.0,-37.82407446,144.9901643,2.136389273975906,20914200.0,4600.0,36700.0,66600.0,77500.0,25200.0,73.47646084693636,50.0,100.0,137.33333333333334,FY18-19,4227000.0,11800.0,11850.0,11650.0,12700.0,8950.0,250.0,1700.0,1650.0,5000.0,3250.0,FY19-20,3883350.0,14600.0,15350.0,12100.0,2200.0,1600.0,100.0,650.0,2250.0,10950.0,1400.0,FY20-21,4206700.0,13550.0,13350.0,14150.0,7700.0,5800.0,100.0,550.0,3150.0,7450.0,2050.0,FY21-22,5491300.0,17600.0,18050.0,16050.0,10850.0,7900.0,200.0,850.0,4150.0,9900.0,2900.0,FY22-23,3105850,7850,8000,7300,11050,8750,150,850,1050,3400,2550
215,North Melbourne,Inner city,Melbourne C  ,1,19973.0,-37.80630984,144.9415102,2.603653013661874,18632650.0,3300.0,38200.0,65400.0,53200.0,23950.0,76.46096306685367,78.57142857142857,100.0,120.0,FY18-19,1497300.0,4550.0,4700.0,3950.0,3400.0,3350.0,100.0,700.0,950.0,2500.0,450.0,FY19-20,10865600.0,36300.0,38250.0,29850.0,17100.0,13850.0,200.0,1300.0,7850.0,21750.0,7150.0,FY20-21,2213650.0,7900.0,8150.0,7050.0,2350.0,1550.0,50.0,300.0,1600.0,5250.0,950.0,FY21-22,2911250.0,10300.0,10800.0,8400.0,3750.0,2300.0,100.0,450.0,2000.0,7000.0,1300.0,FY22-23,1144850,3400,3500,3100,3200,2350,150,550,750,1700,350
221,Mernda,Mernda line,Whittlesea C  ,2,52161.0,-37.602549,145.100883,26.727280517718672,16098350.0,4350.0,38350.0,58750.0,34900.0,16300.0,70.85445007557571,42.10526315789473,100.0,200.0,FY18-19,562350.0,1900.0,1950.0,1550.0,950.0,650.0,550.0,950.0,300.0,200.0,50.0,FY19-20,14895400.0,52450.0,54750.0,44700.0,17550.0,13150.0,500.0,2650.0,8500.0,37550.0,5550.0,FY20-21,233800.0,750.0,750.0,700.0,500.0,350.0,50.0,300.0,150.0,200.0,50.0,FY21-22,8350.0,50.0,50.0,50.0,100.0,50.0,50.0,50.0,50.0,50.0,50.0,FY22-23,398450,1250,1250,1150,950,650,50,400,350,350,50
212,Parliament,City Loop,Melbourne C  ,1,19843.0,-37.81105406,144.9729109,0.9607097402738121,15805800.0,3600.0,41850.0,61650.0,21550.0,16250.0,46.659983011003334,80.95238095238095,100.0,183.8095238095238,FY18-19,10124200.0,38000.0,39650.0,31600.0,7000.0,4850.0,150.0,1050.0,5300.0,28850.0,4200.0,FY19-20,181900.0,650.0,650.0,550.0,250.0,150.0,150.0,400.0,100.0,50.0,50.0,FY20-21,327900.0,1100.0,1150.0,900.0,600.0,400.0,200.0,550.0,200.0,150.0,50.0,FY21-22,447850.0,1400.0,1500.0,1200.0,900.0,650.0,250.0,750.0,300.0,150.0,50.0,FY22-23,4723950,17500,18700,12750,4000,2750,100,850,3100,12650,2050
220,Hawkstowe,Mernda line,Whittlesea C  ,2,52160.0,-37.622992,145.097396,24.561654203944176,11987550.0,3500.0,21500.0,38000.0,44750.0,13050.0,135.5888429752066,75.0,100.0,100.0,FY18-19,193600.0,650.0,700.0,550.0,250.0,200.0,150.0,400.0,100.0,50.0,50.0,FY19-20,787850.0,2000.0,2000.0,2000.0,2700.0,2300.0,50.0,200.0,350.0,1000.0,450.0,FY20-21,4556450.0,14550.0,14550.0,14550.0,8700.0,6550.0,250.0,1100.0,3050.0,8550.0,1550.0,FY21-22,6187150.0,19350.0,19900.0,17350.0,12800.0,10250.0,350.0,1500.0,3850.0,11650.0,2550.0,FY22-23,262500,850,850,800,550,450,50,300,200,250,50
126,South Yarra,Inner city,Melbourne C  ,1,19959.0,-37.83844935,144.9923422,3.1599366737790806,10329500.0,9050.0,14550.0,35750.0,33950.0,12050.0,63.41778963397181,51.13636363636363,100.0,152.23880597014926,FY18-19,4367150.0,14500.0,15450.0,10700.0,8050.0,5750.0,450.0,4400.0,3300.0,5950.0,1350.0,FY19-20,951300.0,3200.0,3350.0,2600.0,1600.0,1050.0,100.0,950.0,650.0,1400.0,250.0,FY20-21,1669900.0,5300.0,5500.0,4600.0,3500.0,2400.0,150.0,1050.0,1350.0,2400.0,500.0,FY21-22,571600.0,1800.0,1900.0,1600.0,1300.0,800.0,50.0,400.0,400.0,850.0,150.0,FY22-23,2769550,9000,9550,6850,5600,3900,250,2250,2250,3950,850
110,Caulfield,Dandenong line,Glen Eira C  ,1,19943.0,-37.87745946,145.0425248,9.342517722501237,9216950.0,7450.0,10150.0,29850.0,39700.0,12150.0,63.911809439407904,78.94736842105263,100.0,160.56338028169014,FY18-19,4175050.0,12800.0,13500.0,10050.0,10200.0,7650.0,350.0,2850.0,3350.0,4950.0,2000.0,FY19-20,660200.0,2150.0,2350.0,1400.0,1300.0,900.0,150.0,1100.0,550.0,450.0,100.0,FY20-21,1370650.0,3950.0,4050.0,3700.0,3800.0,2750.0,150.0,900.0,1100.0,1450.0,450.0,FY21-22,342700.0,1050.0,1050.0,900.0,850.0,600.0,50.0,350.0,300.0,250.0,50.0,FY22-23,2668350,8150,8900,5200,6000,5650,250,2250,2150,3050,1150
210,Flagstaff,City Loop,Melbourne C  ,1,19841.0,-37.81198131,144.9556538,1.21721008233946,8274150.0,2000.0,22000.0,32450.0,10700.0,8500.0,56.81417934273267,93.33333333333333,100.0,141.26984126984127,FY18-19,4854950.0,18500.0,19300.0,15400.0,2600.0,1850.0,100.0,750.0,2600.0,14050.0,1750.0,FY19-20,441650.0,1300.0,1300.0,1300.0,1150.0,900.0,100.0,300.0,400.0,450.0,100.0,FY20-21,103900.0,350.0,400.0,200.0,150.0,100.0,50.0,100.0,50.0,150.0,50.0,FY21-22,115350.0,400.0,450.0,200.0,150.0,100.0,50.0,150.0,50.0,200.0,50.0,FY22-23,2758300,10250,11000,7550,2150,1550,100,700,2100,7150,950
186,South Kensington,Inner city,Melbourne C  ,1,20026.0,-37.79953087,144.925469,4.200825618669899,8087550.0,7900.0,9000.0,27300.0,26750.0,10450.0,175.60857454281216,78.57142857142857,100.0,45.0,FY18-19,412850.0,1400.0,1450.0,1300.0,650.0,450.0,100.0,700.0,300.0,300.0,50.0,FY19-20,4038750.0,13350.0,14050.0,11100.0,7550.0,4800.0,600.0,4100.0,3800.0,4650.0,900.0,FY20-21,127950.0,400.0,400.0,400.0,250.0,200.0,50.0,150.0,100.0,100.0,50.0,FY21-22,2783000.0,8800.0,9050.0,7900.0,6050.0,4150.0,450.0,2400.0,2450.0,3150.0,600.0,FY22-23,725000,2300,2350,2050,1450,1200,150,550,700,800,150
185,Footscray,Inner city,Maribyrnong C  ,1,20025.0,-37.80108298,144.9031992,5.9200360438541315,7813200.0,7600.0,8600.0,26000.0,26100.0,10100.0,2.422674129703072,0.9259259259259258,100.0,3375.0,FY18-19,5332950.0,17700.0,18300.0,15300.0,9800.0,6550.0,750.0,5400.0,4750.0,6150.0,1250.0,FY19-20,191600.0,600.0,650.0,500.0,400.0,250.0,50.0,350.0,150.0,100.0,50.0,FY20-21,2056000.0,6550.0,6550.0,6450.0,4300.0,2900.0,350.0,1650.0,1900.0,2250.0,450.0,FY21-22,103450.0,350.0,350.0,300.0,250.0,150.0,50.0,150.0,100.0,50.0,50.0,FY22-23,129200,150,150,50,1400,100,50,50,50,50,100
73,Glenferrie,Ringwood line,Boroondara C  ,1,19904.0,-37.82146682,145.0364388,6.112589496121748,7738050.0,4800.0,13550.0,29200.0,17050.0,10900.0,64.01377743578469,54.285714285714285,100.0,152.0,FY18-19,2729100.0,9800.0,10450.0,7350.0,2950.0,2200.0,200.0,1750.0,2600.0,4850.0,1000.0,FY19-20,1949900.0,6850.0,7450.0,4900.0,2450.0,1650.0,150.0,1300.0,1900.0,3450.0,700.0,FY20-21,243600.0,800.0,850.0,700.0,400.0,300.0,50.0,250.0,200.0,350.0,50.0,FY21-22,1068450.0,3600.0,3950.0,2450.0,1650.0,1200.0,50.0,550.0,1150.0,1850.0,350.0,FY22-23,1747000,6050,6500,4350,2400,1850,100,950,1800,3050,600
57,Dandenong,Dandenong line,Greater Dandenong C  ,1,19888.0,-37.98996792,145.2097254,28.60082027147375,7116300.0,5900.0,8650.0,24200.0,22650.0,9450.0,80.31128764086458,66.66666666666666,100.0,126.66666666666666,FY18-19,2165200.0,7200.0,7350.0,6500.0,3800.0,2750.0,550.0,1950.0,1850.0,2500.0,450.0,FY19-20,1819050.0,6050.0,6350.0,5050.0,3150.0,2300.0,450.0,1550.0,1650.0,2250.0,400.0,FY20-21,158500.0,500.0,500.0,500.0,300.0,250.0,50.0,150.0,150.0,100.0,50.0,FY21-22,1234650.0,3950.0,4200.0,3050.0,2450.0,1850.0,300.0,950.0,1050.0,1600.0,250.0,FY22-23,1738900,5700,5800,5250,3350,2450,400,1300,1400,2200,450
23,Camberwell,Ringwood line,Boroondara C  ,1,19853.0,-37.82656714,145.0586972,8.109521737968771,6527800.0,6800.0,8100.0,21550.0,24100.0,6650.0,82.82900081234769,95.1219512195122,100.0,102.85714285714285,FY18-19,1969600.0,6250.0,6450.0,5550.0,3800.0,3550.0,200.0,2050.0,1200.0,2550.0,400.0,FY19-20,1496350.0,4850.0,5050.0,4200.0,2650.0,2300.0,150.0,1600.0,1000.0,1950.0,350.0,FY20-21,641150.0,2000.0,2000.0,1900.0,1350.0,1150.0,50.0,500.0,500.0,850.0,150.0,FY21-22,789300.0,2400.0,2550.0,2050.0,1750.0,1500.0,100.0,700.0,600.0,1000.0,200.0,FY22-23,1631400,5200,5500,4050,3150,2900,200,1950,1250,1750,300
111,Malvern,Dandenong line,Stonnington C  ,1,19944.0,-37.8662533,145.0292939,7.640812040768605,6432000.0,5350.0,7300.0,20750.0,25700.0,8050.0,63.83885686839578,47.82608695652174,100.0,138.46153846153845,FY18-19,832800.0,2750.0,3000.0,1750.0,1500.0,1200.0,100.0,1150.0,600.0,900.0,200.0,FY19-20,2853200.0,9050.0,9100.0,8850.0,6450.0,4250.0,250.0,2050.0,2300.0,3200.0,1250.0,FY20-21,340300.0,1050.0,1100.0,1000.0,700.0,550.0,50.0,250.0,250.0,450.0,100.0,FY21-22,1874050.0,5500.0,5700.0,4600.0,5400.0,3700.0,200.0,1350.0,1450.0,2050.0,650.0,FY22-23,531650,1700,1850,1000,1100,850,50,550,450,700,150
71,Ringwood,Ringwood line,Maroondah C  ,2,19902.0,-37.81588648,145.2289685,23.016245794616385,6039950.0,5700.0,5950.0,18950.0,24600.0,7250.0,71.31482619499292,47.5,100.0,140.625,FY18-19,1871350.0,5800.0,5900.0,5300.0,4200.0,3400.0,450.0,2000.0,1400.0,1600.0,400.0,FY19-20,1475200.0,4650.0,4750.0,4200.0,3300.0,2350.0,400.0,1600.0,1150.0,1300.0,300.0,FY20-21,278650.0,900.0,900.0,800.0,600.0,400.0,50.0,300.0,200.0,300.0,50.0,FY21-22,1080200.0,3200.0,3250.0,3050.0,2900.0,2050.0,200.0,850.0,850.0,1100.0,200.0,FY22-23,1334550,4150,4150,4150,3100,2300,250,950,1050,1650,300
200,Box Hill,Ringwood line,Whitehorse C  ,2,20042.0,-37.81922165,145.1214289,13.568382558536715,5926100.0,7350.0,5150.0,20000.0,19400.0,7500.0,30.139736806403473,42.5,100.0,310.0,FY18-19,3685500.0,12200.0,12600.0,10650.0,6350.0,5050.0,600.0,4000.0,3250.0,3950.0,800.0,FY19-20,675600.0,2200.0,2300.0,1900.0,1300.0,900.0,150.0,1100.0,500.0,450.0,100.0,FY20-21,211900.0,650.0,700.0,600.0,450.0,300.0,50.0,250.0,200.0,150.0,50.0,FY21-22,242300.0,750.0,800.0,650.0,550.0,400.0,50.0,300.0,200.0,200.0,50.0,FY22-23,1110800,3500,3600,3150,2300,1800,650,1700,750,400,100
127,Upfield,Upfield line,Hume C  ,2,19960.0,-37.66607779,144.9467399,17.020066539347113,5887900.0,5500.0,8000.0,20750.0,18400.0,7300.0,61.6025116025116,44.44444444444444,100.0,166.66666666666669,FY18-19,366300.0,1200.0,1250.0,1000.0,650.0,500.0,150.0,450.0,300.0,300.0,50.0,FY19-20,3151600.0,10650.0,11650.0,7250.0,5250.0,3450.0,350.0,3350.0,2600.0,4450.0,950.0,FY20-21,147300.0,500.0,400.0,750.0,250.0,200.0,50.0,100.0,100.0,150.0,50.0,FY21-22,1997050.0,6350.0,6700.0,5050.0,4300.0,3000.0,200.0,1400.0,1600.0,2850.0,600.0,FY22-23,225650,700,750,650,450,350,50,200,200,250,50
83,Clayton,Dandenong line,Monash C  ,2,19915.0,-37.92468255,145.1205344,17.93379371027506,5620900.0,5550.0,5950.0,19500.0,18700.0,7950.0,75.02325292986917,70.58823529411765,100.0,134.28571428571428,FY18-19,1612700.0,5250.0,5650.0,3750.0,3100.0,2400.0,350.0,1700.0,1550.0,1550.0,450.0,FY19-20,1388700.0,4450.0,4850.0,3250.0,2800.0,1950.0,300.0,1500.0,1300.0,1350.0,400.0,FY20-21,556100.0,1950.0,2050.0,1550.0,650.0,450.0,100.0,450.0,500.0,850.0,150.0,FY21-22,853500.0,2700.0,2750.0,2500.0,1800.0,1300.0,200.0,700.0,700.0,900.0,200.0,FY22-23,1209900,3900,4200,2650,2550,1700,300,1200,1100,1300,350
183,West Footscray,Sunbury line,Maribyrnong C  ,1,20023.0,-37.8018087,144.8853248,7.402829023677056,5578450.0,6600.0,5550.0,19200.0,17650.0,7000.0,539.7994679762635,262.0689655172414,100.0,14.563106796116504,FY18-19,733050.0,2500.0,2550.0,2300.0,1150.0,750.0,250.0,1450.0,450.0,350.0,50.0,FY19-20,442450.0,1450.0,1550.0,1250.0,750.0,550.0,150.0,750.0,350.0,250.0,50.0,FY20-21,213500.0,700.0,700.0,700.0,350.0,250.0,50.0,300.0,150.0,150.0,50.0,FY21-22,232450.0,750.0,800.0,700.0,450.0,300.0,50.0,300.0,200.0,200.0,50.0,FY22-23,3957000,12900,13600,10400,7750,5350,650,3800,3650,4600,850
84,Huntingdale,Dandenong line,Monash C  ,1&2,19916.0,-37.91101734,145.1023643,15.733871877414915,5293350.0,5350.0,8050.0,20550.0,10450.0,7150.0,70.23667524640592,58.333333333333336,100.0,138.70967741935485,FY18-19,1592900.0,5800.0,6350.0,3550.0,1500.0,1050.0,350.0,1800.0,1350.0,2400.0,450.0,FY19-20,1151750.0,4100.0,4650.0,2250.0,1150.0,850.0,250.0,1400.0,1000.0,1700.0,300.0,FY20-21,763050.0,2400.0,2450.0,2300.0,1600.0,1150.0,150.0,550.0,650.0,900.0,200.0,FY21-22,666850.0,2350.0,2600.0,1550.0,750.0,500.0,100.0,550.0,600.0,1150.0,200.0,FY22-23,1118800,4050,4500,2100,1150,750,150,1050,1050,1900,350
85,Oakleigh,Dandenong line,Monash C  ,1&2,19917.0,-37.90037214,145.0883079,14.026982123601673,5289100.0,5600.0,6100.0,18450.0,17650.0,6750.0,72.34723905141077,57.14285714285714,100.0,146.66666666666666,FY18-19,1733100.0,5750.0,6200.0,4050.0,3100.0,2250.0,400.0,2100.0,1400.0,1850.0,400.0,FY19-20,1215300.0,3950.0,4400.0,2600.0,2300.0,1600.0,300.0,1350.0,1050.0,1400.0,350.0,FY20-21,250500.0,800.0,800.0,750.0,500.0,350.0,50.0,300.0,200.0,200.0,50.0,FY21-22,836350.0,2650.0,2750.0,2300.0,1750.0,1250.0,150.0,650.0,700.0,1050.0,200.0,FY22-23,1253850,4000,4300,2650,2750,1800,200,1200,1000,1600,300
218,Hughesdale,Dandenong line,Monash C  ,1&2,19918.0,-37.89488129,145.0776351,12.919288938797754,5288050.0,3200.0,7050.0,16250.0,24550.0,6000.0,113.86573552601938,56.25,100.0,100.0,FY18-19,443900.0,1500.0,1650.0,850.0,750.0,500.0,100.0,800.0,350.0,300.0,100.0,FY19-20,2965500.0,8600.0,8800.0,7900.0,8450.0,6150.0,200.0,1250.0,1350.0,4150.0,1900.0,FY20-21,669700.0,1950.0,2000.0,1650.0,1950.0,1300.0,50.0,350.0,500.0,950.0,150.0,FY21-22,703500.0,2150.0,2250.0,1850.0,1750.0,1250.0,50.0,350.0,500.0,1100.0,200.0,FY22-23,505450,1500,1550,1300,1400,1050,50,450,400,550,100
42,Glen Waverley,Glen Waverley line,Monash C  ,2,19873.0,-37.87950407,145.1620575,18.43195945913806,5257650.0,7900.0,3100.0,17000.0,19000.0,5950.0,76.29255617562819,62.5,100.0,139.28571428571428,FY18-19,1693350.0,5650.0,5700.0,5500.0,2800.0,2150.0,550.0,2800.0,1150.0,950.0,250.0,FY19-20,1305600.0,4250.0,4300.0,4200.0,2600.0,1700.0,400.0,2100.0,850.0,700.0,200.0,FY20-21,261400.0,850.0,850.0,750.0,550.0,350.0,100.0,400.0,200.0,200.0,50.0,FY21-22,705400.0,2100.0,2150.0,1900.0,1800.0,1350.0,150.0,850.0,500.0,450.0,150.0,FY22-23,1291900,3900,4000,3650,3200,2500,300,1750,850,800,250
81,Springvale,Dandenong line,Greater Dandenong C  ,2,19913.0,-37.94950878,145.1534518,21.924928951709955,5057350.0,4850.0,4600.0,16550.0,20000.0,7000.0,77.02143164728875,65.625,100.0,131.25,FY18-19,1509450.0,4800.0,5000.0,4000.0,3150.0,2450.0,400.0,1600.0,1400.0,1250.0,300.0,FY19-20,1295050.0,4000.0,4300.0,3100.0,3000.0,2150.0,350.0,1300.0,1250.0,1150.0,250.0,FY20-21,339550.0,1000.0,1000.0,900.0,900.0,700.0,100.0,300.0,250.0,300.0,50.0,FY21-22,750700.0,2300.0,2400.0,1850.0,1700.0,1300.0,200.0,600.0,700.0,750.0,150.0,FY22-23,1162600,3600,3850,2700,2650,2000,250,1050,1100,1150,250
202,Craigieburn,Craigieburn line,Hume C  ,2,40221.0,-37.6018169,144.9433203,24.162080649118128,4862900.0,6400.0,3750.0,16600.0,15450.0,6400.0,26.790697674418606,30.952380952380953,100.0,340.0,FY18-19,1236250.0,4100.0,4200.0,3700.0,2150.0,1600.0,800.0,2100.0,800.0,400.0,100.0,FY19-20,2775200.0,9050.0,9400.0,7750.0,5500.0,3700.0,500.0,2950.0,2450.0,2950.0,550.0,FY20-21,240050.0,750.0,850.0,550.0,450.0,300.0,100.0,300.0,200.0,150.0,50.0,FY21-22,280200.0,900.0,900.0,800.0,550.0,400.0,100.0,400.0,200.0,150.0,50.0,FY22-23,331200,1150,1250,800,450,350,200,650,250,100,50
24,Frankston,Frankston line,Frankston C  ,2,19855.0,-38.14299007,145.1261623,38.70575906848227,4484150.0,3850.0,3100.0,13750.0,19000.0,6650.0,78.8584650983417,57.692307692307686,100.0,125.80645161290323,FY18-19,1296500.0,4000.0,4150.0,3600.0,2900.0,2250.0,750.0,1300.0,1050.0,900.0,150.0,FY19-20,896100.0,2750.0,2850.0,2550.0,2200.0,1350.0,500.0,850.0,750.0,600.0,100.0,FY20-21,576400.0,1700.0,1650.0,1900.0,1500.0,1050.0,200.0,400.0,500.0,400.0,100.0,FY21-22,692750.0,2050.0,2000.0,2200.0,1750.0,1300.0,300.0,550.0,600.0,450.0,100.0,FY22-23,1022400,3050,3100,2850,2750,1950,500,750,900,750,150
67,Blackburn,Ringwood line,Whitehorse C  ,2,19898.0,-37.82007075,145.1500135,16.07994486324201,4445000.0,7150.0,3400.0,15250.0,13800.0,4700.0,52.378065211533276,38.88888888888889,100.0,187.5,FY18-19,1484400.0,5050.0,5250.0,4350.0,2200.0,1700.0,400.0,2700.0,950.0,1000.0,150.0,FY19-20,1185100.0,3950.0,4150.0,3250.0,2050.0,1500.0,300.0,2100.0,800.0,800.0,150.0,FY20-21,390550.0,1250.0,1250.0,1150.0,800.0,550.0,100.0,450.0,300.0,350.0,50.0,FY21-22,607450.0,1950.0,2050.0,1550.0,1200.0,900.0,150.0,850.0,450.0,550.0,100.0,FY22-23,777500,2500,2550,2300,1600,1300,150,1050,550,700,100
89,Hoppers Crossing,Werribee line,Wyndham C  ,2,19922.0,-37.88327618,144.7009549,24.447639623551893,4132400.0,6200.0,2100.0,14300.0,11250.0,5950.0,75.4841814026224,58.139534883720934,100.0,130.76923076923077,FY18-19,1246950.0,4400.0,4550.0,3750.0,1600.0,1100.0,750.0,2150.0,850.0,700.0,100.0,FY19-20,1061600.0,3650.0,3750.0,3300.0,1500.0,1050.0,750.0,1700.0,750.0,450.0,50.0,FY20-21,349850.0,1200.0,1200.0,1150.0,550.0,350.0,200.0,400.0,300.0,250.0,50.0,FY21-22,532750.0,1700.0,1800.0,1500.0,1050.0,750.0,350.0,700.0,450.0,250.0,50.0,FY22-23,941250,3000,3000,3150,1850,1450,500,1250,700,450,100
90,Laverton,Werribee line,Hobsons Bay C  ,1&2,19923.0,-37.86369404,144.7726167,17.796776262166933,4048100.0,6650.0,2300.0,14400.0,10300.0,5500.0,61.75253854832644,43.75,100.0,145.0,FY18-19,1196550.0,4200.0,4300.0,3800.0,1550.0,1100.0,550.0,2400.0,800.0,500.0,100.0,FY19-20,1079900.0,3750.0,3950.0,3200.0,1400.0,950.0,700.0,1850.0,750.0,600.0,100.0,FY20-21,596350.0,1950.0,2050.0,1650.0,1050.0,750.0,300.0,800.0,500.0,350.0,50.0,FY21-22,436400.0,1450.0,1550.0,1200.0,750.0,550.0,250.0,550.0,350.0,350.0,50.0,FY22-23,738900,2450,2550,2100,1250,950,400,1050,550,500,50
198,Newmarket,Craigieburn line,Moonee Valley C  ,1,20040.0,-37.78732767,144.9289785,4.796117918046251,4037800.0,4950.0,3750.0,13600.0,13450.0,4800.0,215.2766124070034,100.0,100.0,41.66666666666667,FY18-19,893850.0,3000.0,3100.0,2600.0,1550.0,1100.0,200.0,1550.0,650.0,550.0,150.0,FY19-20,776300.0,2550.0,2650.0,2250.0,1500.0,1000.0,150.0,1150.0,600.0,600.0,150.0,FY20-21,202200.0,650.0,700.0,450.0,400.0,300.0,50.0,300.0,150.0,150.0,50.0,FY21-22,241200.0,750.0,800.0,650.0,550.0,350.0,50.0,400.0,150.0,150.0,50.0,FY22-23,1924250,6250,6350,5800,3750,2950,250,1550,1650,2300,500
182,Tottenham,Sunbury line,Maribyrnong C  ,1,20022.0,-37.7992509,144.8629449,9.380589888574693,3966350.0,4750.0,3350.0,13150.0,13000.0,5000.0,28.30696460610015,28.57142857142857,100.0,350.0,FY18-19,613100.0,2050.0,2100.0,1900.0,1000.0,700.0,200.0,1050.0,450.0,350.0,50.0,FY19-20,1753250.0,5700.0,5850.0,5300.0,3300.0,2400.0,500.0,2000.0,1500.0,1550.0,300.0,FY20-21,190650.0,600.0,600.0,650.0,350.0,250.0,50.0,200.0,150.0,150.0,50.0,FY21-22,1235800.0,3950.0,4000.0,3700.0,2550.0,1850.0,300.0,1200.0,1050.0,1200.0,200.0,FY22-23,173550,550,600,500,350,250,50,300,100,100,50
201,Roxburgh Park,Craigieburn line,Hume C  ,2,40220.0,-37.63823121,144.9354037,20.21477125224277,3769650.0,4100.0,3550.0,12400.0,12950.0,4850.0,33.017391304347825,31.57894736842105,100.0,320.0,FY18-19,575000.0,1950.0,2000.0,1800.0,900.0,650.0,350.0,950.0,400.0,250.0,50.0,FY19-20,424600.0,1350.0,1400.0,1200.0,900.0,600.0,100.0,650.0,300.0,300.0,50.0,FY20-21,1192700.0,3750.0,3800.0,3600.0,2450.0,1900.0,200.0,950.0,1100.0,1300.0,250.0,FY21-22,1387500.0,4400.0,4550.0,3850.0,2850.0,2100.0,250.0,1250.0,1250.0,1600.0,300.0,FY22-23,189850,650,650,550,350,250,50,300,150,100,50
181,Sunshine,Sunbury line,Brimbank C  ,1&2,20021.0,-37.78853633,144.8328782,12.236640802394003,3714650.0,4650.0,3100.0,12400.0,12250.0,4850.0,21.635963387788205,35.84905660377358,100.0,550.0,FY18-19,2157750.0,7000.0,7150.0,6250.0,4050.0,3300.0,600.0,2650.0,1800.0,1750.0,350.0,FY19-20,124600.0,400.0,450.0,300.0,250.0,200.0,50.0,200.0,100.0,100.0,50.0,FY20-21,896350.0,2900.0,2950.0,2700.0,1700.0,1200.0,250.0,800.0,850.0,900.0,150.0,FY21-22,69100.0,200.0,200.0,200.0,150.0,150.0,50.0,50.0,50.0,50.0,50.0,FY22-23,466850,1600,1650,1300,750,500,150,950,300,300,50
88,Werribee,Werribee line,Wyndham C  ,2,19921.0,-37.89937805,144.661118,28.323536275378974,3712550.0,5750.0,2250.0,12900.0,11300.0,5000.0,66.55795904887715,62.5,100.0,175.0,FY18-19,1211200.0,4150.0,4250.0,3800.0,1750.0,1200.0,800.0,2000.0,850.0,550.0,100.0,FY19-20,833000.0,2750.0,3050.0,1700.0,1500.0,1100.0,200.0,1400.0,700.0,500.0,200.0,FY20-21,351350.0,1150.0,1150.0,1250.0,600.0,400.0,200.0,450.0,300.0,200.0,50.0,FY21-22,510850.0,1600.0,1650.0,1400.0,1150.0,800.0,100.0,650.0,400.0,400.0,100.0,FY22-23,806150,2600,2800,1750,1700,1100,150,1250,650,600,200
125,Prahran,Sandringham line,Melbourne C  ,1,19958.0,-37.84951848,144.9898599,4.011131857887797,3558200.0,3600.0,4850.0,12150.0,10900.0,3750.0,72.53578997448207,58.333333333333336,100.0,135.29411764705884,FY18-19,1156050.0,4000.0,4100.0,3600.0,1650.0,1200.0,100.0,1200.0,750.0,1750.0,300.0,FY19-20,714100.0,2400.0,2550.0,1850.0,1250.0,800.0,100.0,1050.0,450.0,750.0,200.0,FY20-21,473550.0,1550.0,1550.0,1500.0,950.0,600.0,50.0,300.0,350.0,700.0,150.0,FY21-22,375950.0,1150.0,1200.0,1000.0,900.0,550.0,50.0,350.0,250.0,450.0,150.0,FY22-23,838550,2700,2750,2400,1800,1200,100,700,550,1200,200
69,Mitcham,Ringwood line,Whitehorse C  ,2,19900.0,-37.81800987,145.1919735,19.76474652475942,3532050.0,6400.0,2150.0,12450.0,9350.0,3900.0,52.18074181466715,43.75,100.0,185.71428571428572,FY18-19,1241550.0,4300.0,4450.0,3700.0,1700.0,1250.0,550.0,2400.0,650.0,700.0,100.0,FY19-20,945050.0,3250.0,3400.0,2750.0,1450.0,900.0,450.0,1800.0,550.0,500.0,100.0,FY20-21,185950.0,650.0,650.0,550.0,300.0,200.0,100.0,350.0,100.0,100.0,50.0,FY21-22,511650.0,1650.0,1750.0,1400.0,1000.0,700.0,150.0,800.0,350.0,350.0,50.0,FY22-23,647850,2200,2200,2050,1050,800,200,1050,450,500,50
82,Westall,Dandenong line,Kingston C  ,2,19914.0,-37.93849121,145.1388326,20.15294271912065,3510200.0,3700.0,3000.0,10850.0,14800.0,4200.0,74.73860777187588,54.166666666666664,100.0,150.0,FY18-19,894250.0,2800.0,2900.0,2400.0,1750.0,1700.0,300.0,1200.0,650.0,650.0,100.0,FY19-20,676550.0,1950.0,2100.0,1600.0,2000.0,1400.0,200.0,800.0,450.0,500.0,100.0,FY20-21,796650.0,2500.0,2500.0,2500.0,1600.0,1300.0,150.0,600.0,700.0,850.0,250.0,FY21-22,474400.0,1500.0,1500.0,1650.0,950.0,750.0,150.0,450.0,350.0,450.0,100.0,FY22-23,668350,1950,1850,2300,1700,1650,150,650,400,550,150
162,Watergardens,Sunbury line,Brimbank C  ,2,20000.0,-37.70112872,144.7741805,21.377129986802846,3498000.0,5900.0,1450.0,12050.0,9800.0,4800.0,60.9499852027227,56.666666666666664,100.0,180.76923076923077,FY18-19,1689500.0,5800.0,5950.0,5200.0,2500.0,1850.0,1050.0,3000.0,1150.0,600.0,150.0,FY19-20,185050.0,650.0,700.0,550.0,200.0,150.0,150.0,400.0,100.0,50.0,50.0,FY20-21,528500.0,1750.0,1700.0,1800.0,950.0,700.0,250.0,700.0,400.0,300.0,50.0,FY21-22,65200.0,200.0,250.0,150.0,100.0,50.0,50.0,100.0,50.0,50.0,50.0,FY22-23,1029750,3350,3450,3050,1850,1450,450,1700,750,450,100
164,St Albans,Sunbury line,Brimbank C  ,2,20002.0,-37.74486131,144.8000505,16.788976515496614,3492550.0,4800.0,1800.0,11750.0,11350.0,5050.0,74.81005750745078,63.63636363636363,100.0,134.6153846153846,FY18-19,1191150.0,3950.0,4050.0,3450.0,2050.0,1650.0,400.0,1650.0,1200.0,650.0,150.0,FY19-20,632200.0,2100.0,2200.0,1800.0,1050.0,750.0,400.0,1150.0,400.0,150.0,50.0,FY20-21,500200.0,1600.0,1600.0,1600.0,1000.0,800.0,200.0,500.0,500.0,350.0,50.0,FY21-22,277900.0,900.0,950.0,750.0,500.0,350.0,150.0,450.0,200.0,100.0,50.0,FY22-23,891100,2850,2950,2550,1800,1400,300,1050,900,550,100
163,Keilor Plains,Sunbury line,Brimbank C  ,2,20001.0,-37.72927934,144.7937381,18.16047869286617,3442950.0,5800.0,1250.0,11900.0,10100.0,4650.0,59.77125193199382,54.83870967741935,100.0,175.0,FY18-19,808750.0,2750.0,2850.0,2450.0,1200.0,900.0,500.0,1550.0,500.0,200.0,50.0,FY19-20,1300950.0,4350.0,4550.0,3650.0,2250.0,1500.0,800.0,2200.0,900.0,500.0,100.0,FY20-21,262450.0,850.0,850.0,900.0,450.0,350.0,150.0,350.0,200.0,100.0,50.0,FY21-22,587400.0,1900.0,2000.0,1550.0,1100.0,850.0,300.0,850.0,450.0,300.0,50.0,FY22-23,483400,1600,1650,1400,850,650,250,850,300,150,50
68,Nunawading,Ringwood line,Whitehorse C  ,2,19899.0,-37.82060317,145.1748917,18.26572797464555,3385500.0,5500.0,2350.0,11550.0,10250.0,3700.0,45.84494773519164,36.58536585365854,100.0,227.27272727272728,FY18-19,1148000.0,3900.0,4000.0,3400.0,1750.0,1450.0,350.0,2050.0,750.0,700.0,150.0,FY19-20,888900.0,2950.0,3050.0,2550.0,1500.0,1150.0,250.0,1550.0,600.0,550.0,100.0,FY20-21,401050.0,1300.0,1350.0,1150.0,700.0,500.0,150.0,600.0,300.0,300.0,50.0,FY21-22,421250.0,1350.0,1400.0,1150.0,850.0,600.0,100.0,550.0,300.0,350.0,50.0,FY22-23,526300,1750,1750,1600,950,800,100,750,400,450,50
59,Noble Park,Dandenong line,Greater Dandenong C  ,2,19890.0,-37.96723193,145.1769357,24.77329135704197,3349950.0,4300.0,2650.0,11750.0,10450.0,4900.0,87.77287880417249,76.92307692307693,100.0,117.3913043478261,FY18-19,929900.0,3150.0,3300.0,2450.0,1500.0,1100.0,400.0,1300.0,800.0,700.0,150.0,FY19-20,868350.0,2850.0,3100.0,2100.0,1550.0,1100.0,350.0,1150.0,800.0,650.0,150.0,FY20-21,178800.0,600.0,600.0,550.0,300.0,250.0,50.0,250.0,150.0,100.0,50.0,FY21-22,556700.0,1750.0,1900.0,1350.0,1100.0,850.0,250.0,600.0,500.0,500.0,100.0,FY22-23,816200,2650,2850,1850,1550,1150,300,1000,700,700,150
156,Newport,Werribee line,Hobsons Bay C  ,1,19994.0,-37.84271757,144.8835999,7.808499972069126,3289000.0,5600.0,2000.0,10950.0,10800.0,3500.0,80.09892457001536,73.46938775510205,100.0,128.57142857142858,FY18-19,1334350.0,4400.0,4450.0,4050.0,2600.0,1700.0,400.0,2450.0,800.0,650.0,150.0,FY19-20,289450.0,1000.0,1050.0,850.0,400.0,250.0,100.0,550.0,200.0,200.0,50.0,FY20-21,497600.0,1600.0,1600.0,1450.0,1000.0,700.0,100.0,650.0,350.0,400.0,100.0,FY21-22,98800.0,300.0,300.0,300.0,200.0,150.0,50.0,150.0,100.0,100.0,50.0,FY22-23,1068800,3450,3550,3000,2100,1700,250,1800,650,650,150
165,Ginifer,Sunbury line,Brimbank C  ,2,20003.0,-37.75751083,144.8095734,15.394458835940068,3245100.0,4350.0,2050.0,10900.0,10600.0,4500.0,62.446648632401555,57.692307692307686,100.0,169.23076923076923,FY18-19,831750.0,2750.0,2850.0,2500.0,1400.0,1100.0,300.0,1300.0,700.0,450.0,100.0,FY19-20,963000.0,3100.0,3300.0,2550.0,1900.0,1300.0,300.0,1300.0,1000.0,550.0,100.0,FY20-21,320700.0,1050.0,1050.0,1050.0,600.0,450.0,100.0,350.0,300.0,250.0,50.0,FY21-22,610250.0,1900.0,1950.0,1700.0,1250.0,1000.0,250.0,650.0,600.0,400.0,50.0,FY22-23,519400,1700,1750,1500,900,700,150,750,450,400,50
124,Windsor,Sandringham line,Port Phillip C  ,1,19957.0,-37.85605308,144.9920352,4.739754151264637,3197450.0,4350.0,3050.0,10850.0,10250.0,3400.0,60.66280847346582,48.148148148148145,100.0,190.0,FY18-19,915800.0,3150.0,3300.0,2700.0,1350.0,950.0,150.0,1350.0,550.0,1000.0,250.0,FY19-20,923000.0,3050.0,3150.0,2700.0,1650.0,1200.0,200.0,1500.0,650.0,650.0,150.0,FY20-21,334200.0,1050.0,1100.0,950.0,700.0,450.0,50.0,300.0,250.0,400.0,100.0,FY21-22,468900.0,1450.0,1450.0,1350.0,1100.0,800.0,100.0,550.0,350.0,400.0,100.0,FY22-23,555550,1750,1850,1500,1250,800,50,650,300,600,150
123,Balaclava,Sandringham line,Port Phillip C  ,1,19956.0,-37.86948773,144.9935121,6.150159864593337,3065400.0,4650.0,2250.0,10150.0,10000.0,3200.0,65.16979947063838,51.35135135135135,100.0,164.28571428571428,FY18-19,1114550.0,3800.0,3850.0,3650.0,1700.0,1350.0,200.0,1850.0,750.0,800.0,200.0,FY19-20,531200.0,1800.0,1850.0,1500.0,900.0,600.0,100.0,1000.0,350.0,300.0,50.0,FY20-21,416700.0,1300.0,1300.0,1350.0,900.0,650.0,100.0,450.0,350.0,350.0,100.0,FY21-22,276600.0,850.0,900.0,750.0,600.0,450.0,50.0,400.0,200.0,250.0,50.0,FY22-23,726350,2250,2250,2250,1600,1250,100,950,450,550,150
197,Ascot Vale,Craigieburn line,Moonee Valley C  ,1,20039.0,-37.77530609,144.9218207,6.2124116090209665,3060050.0,5000.0,2050.0,10250.0,10300.0,3350.0,61.98889449772842,44.0,100.0,157.14285714285714,FY18-19,594300.0,2000.0,2050.0,1850.0,950.0,700.0,150.0,1250.0,350.0,250.0,50.0,FY19-20,1298700.0,4300.0,4500.0,3700.0,2350.0,1550.0,500.0,2300.0,750.0,850.0,150.0,FY20-21,362450.0,1100.0,1200.0,900.0,850.0,600.0,50.0,400.0,350.0,300.0,100.0,FY21-22,436200.0,1300.0,1350.0,1250.0,1100.0,750.0,100.0,500.0,350.0,350.0,100.0,FY22-23,368400,1150,1150,1100,850,600,50,550,250,300,50
87,Carnegie,Dandenong line,Glen Eira C  ,1,19920.0,-37.88624148,145.0585751,11.034530137774862,2997200.0,5050.0,1850.0,10600.0,9450.0,3700.0,57.291298865069365,61.76470588235294,100.0,225.0,FY18-19,991250.0,3300.0,3550.0,2200.0,1800.0,1350.0,200.0,1700.0,850.0,550.0,300.0,FY19-20,625600.0,2100.0,2350.0,1250.0,1000.0,700.0,200.0,1300.0,500.0,300.0,50.0,FY20-21,460850.0,1450.0,1450.0,1450.0,950.0,750.0,100.0,500.0,400.0,350.0,100.0,FY21-22,351600.0,1150.0,1200.0,950.0,700.0,500.0,100.0,500.0,250.0,250.0,50.0,FY22-23,567900,1900,2050,1250,1000,700,150,1050,400,400,50
55,Cranbourne,Dandenong line,Casey C  ,2,19886.0,-38.09953731,145.280599,41.64119313821009,2967450.0,4400.0,1050.0,10650.0,8250.0,5150.0,96.31305411189238,84.61538461538461,100.0,107.6923076923077,FY18-19,817750.0,2800.0,3000.0,2100.0,1150.0,800.0,800.0,1300.0,550.0,250.0,50.0,FY19-20,773050.0,2600.0,2900.0,1650.0,1200.0,900.0,750.0,1200.0,600.0,250.0,50.0,FY20-21,126750.0,450.0,450.0,350.0,200.0,150.0,100.0,200.0,100.0,50.0,50.0,FY21-22,462300.0,1500.0,1600.0,1150.0,850.0,600.0,400.0,600.0,350.0,200.0,50.0,FY22-23,787600,2600,2700,2150,1350,1050,650,1100,600,300,50
72,Auburn,Ringwood line,Boroondara C  ,1,19903.0,-37.82239831,145.0458437,6.943464036591584,2964700.0,3700.0,3200.0,10200.0,9500.0,3300.0,74.64552113433237,62.5,100.0,125.0,FY18-19,744050.0,2500.0,2600.0,2100.0,1250.0,900.0,100.0,1200.0,550.0,650.0,100.0,FY19-20,584350.0,1950.0,2050.0,1600.0,1050.0,750.0,100.0,950.0,400.0,500.0,100.0,FY20-21,749450.0,2500.0,2650.0,1950.0,1200.0,850.0,50.0,400.0,750.0,1250.0,200.0,FY21-22,331450.0,1050.0,1100.0,850.0,750.0,550.0,50.0,400.0,250.0,300.0,50.0,FY22-23,555400,1750,1800,1500,1250,950,100,750,400,500,100
196,Moonee Ponds,Craigieburn line,Moonee Valley C  ,1,20038.0,-37.76570666,144.9191607,7.200805843337978,2959100.0,4400.0,2300.0,9900.0,9750.0,3300.0,57.79084662862467,53.84615384615385,100.0,172.72727272727272,FY18-19,858700.0,2850.0,2900.0,2650.0,1600.0,1050.0,200.0,1300.0,600.0,650.0,150.0,FY19-20,301950.0,1050.0,1050.0,900.0,450.0,300.0,100.0,650.0,150.0,100.0,50.0,FY20-21,579150.0,1900.0,1950.0,1550.0,1050.0,750.0,200.0,750.0,400.0,550.0,100.0,FY21-22,723050.0,2300.0,2400.0,1850.0,1600.0,1050.0,200.0,1000.0,500.0,650.0,100.0,FY22-23,496250,1550,1600,1400,1100,800,100,700,350,350,100
52,Berwick,Dandenong line,Casey C  ,2,19883.0,-38.04040829,145.3457261,41.39444051393551,2951500.0,4300.0,2050.0,11250.0,6350.0,4950.0,80.62557816836264,74.07407407407408,100.0,136.36363636363635,FY18-19,864800.0,3150.0,3400.0,2100.0,900.0,600.0,800.0,1350.0,600.0,600.0,100.0,FY19-20,754550.0,2650.0,3000.0,1550.0,900.0,600.0,700.0,1200.0,550.0,500.0,50.0,FY20-21,309300.0,1050.0,1050.0,1000.0,500.0,350.0,200.0,350.0,250.0,150.0,50.0,FY21-22,325600.0,1100.0,1200.0,750.0,500.0,350.0,200.0,400.0,300.0,300.0,50.0,FY22-23,697250,2400,2600,1600,950,700,450,1000,600,500,50
207,Williams Landing,Werribee line,Wyndham C  ,2,46468.0,-37.86986533,144.7474447,20.110297167000414,2939400.0,5450.0,1350.0,10650.0,6850.0,3900.0,10.736344747103862,6.41025641025641,100.0,880.0000000000001,FY18-19,1756650.0,6300.0,6500.0,5650.0,1850.0,1300.0,1000.0,3900.0,1100.0,450.0,100.0,FY19-20,355850.0,1250.0,1350.0,800.0,500.0,350.0,350.0,600.0,250.0,100.0,50.0,FY20-21,291000.0,900.0,950.0,850.0,600.0,450.0,100.0,300.0,200.0,250.0,50.0,FY21-22,347300.0,1050.0,1100.0,1000.0,800.0,550.0,150.0,400.0,250.0,250.0,50.0,FY22-23,188600,650,750,400,250,200,100,250,100,300,50
43,Syndal,Glen Waverley line,Monash C  ,2,19874.0,-37.87622963,145.1497805,17.296167413348208,2881350.0,5000.0,1650.0,9800.0,8400.0,3200.0,73.4341973523195,70.58823529411765,100.0,169.23076923076923,FY18-19,898900.0,3150.0,3200.0,3050.0,1150.0,850.0,550.0,1700.0,450.0,450.0,100.0,FY19-20,708350.0,2450.0,2450.0,2400.0,1050.0,750.0,400.0,1250.0,350.0,350.0,50.0,FY20-21,280350.0,900.0,900.0,750.0,600.0,400.0,50.0,300.0,200.0,300.0,50.0,FY21-22,333650.0,1050.0,1100.0,900.0,700.0,500.0,100.0,550.0,200.0,200.0,50.0,FY22-23,660100,2100,2150,1900,1300,1100,250,1200,350,350,50
75,Burnley,Inner city,Yarra C  ,1,19906.0,-37.82756022,145.0075551,3.7108076745675675,2862350.0,3000.0,3250.0,8700.0,12300.0,2450.0,81.93690049693748,54.54545454545454,100.0,127.27272727272727,FY18-19,865300.0,2650.0,2700.0,2550.0,2100.0,1400.0,100.0,1100.0,450.0,900.0,150.0,FY19-20,633700.0,2150.0,2200.0,1950.0,1200.0,650.0,100.0,850.0,350.0,750.0,150.0,FY20-21,198600.0,700.0,700.0,600.0,300.0,200.0,50.0,100.0,100.0,400.0,50.0,FY21-22,455750.0,1250.0,1200.0,1400.0,1700.0,1050.0,50.0,350.0,250.0,450.0,100.0,FY22-23,709000,2050,1900,2700,2000,1700,50,600,350,750,150
209,Middle Gorge,Mernda line,Whittlesea C  ,2,52159.0,-37.644062,145.09214,22.28389104524115,2860350.0,4700.0,1450.0,9800.0,8150.0,3700.0,349.11779968863516,314.2857142857143,100.0,33.33333333333333,FY18-19,192700.0,700.0,750.0,450.0,250.0,150.0,150.0,350.0,100.0,150.0,50.0,FY19-20,1419700.0,5100.0,5250.0,4450.0,1600.0,950.0,800.0,3050.0,900.0,400.0,100.0,FY20-21,277000.0,750.0,750.0,850.0,800.0,600.0,50.0,100.0,250.0,300.0,50.0,FY21-22,298200.0,850.0,800.0,1000.0,850.0,650.0,50.0,100.0,250.0,350.0,50.0,FY22-23,672750,2200,2250,1850,1350,950,450,1100,400,250,50
34,Mentone,Frankston line,Kingston C  ,2,19865.0,-37.9818654,145.0651659,20.124908825832453,2796500.0,3250.0,3950.0,10400.0,7600.0,3100.0,65.99226587457267,42.30769230769231,100.0,135.71428571428572,FY18-19,892150.0,3050.0,3300.0,2050.0,1400.0,1000.0,250.0,1300.0,600.0,1000.0,100.0,FY19-20,528700.0,1800.0,2000.0,1200.0,800.0,500.0,150.0,800.0,400.0,600.0,50.0,FY20-21,362550.0,1200.0,1300.0,800.0,650.0,400.0,50.0,250.0,300.0,650.0,50.0,FY21-22,424350.0,1400.0,1550.0,950.0,750.0,500.0,50.0,350.0,350.0,700.0,50.0,FY22-23,588750,2000,2250,1050,950,650,100,550,500,1000,100
141,Victoria Park,Inner city,Yarra C  ,1,19975.0,-37.79915782,144.9944514,3.219330166607165,2727700.0,2900.0,3100.0,8850.0,10700.0,2800.0,69.86934142800581,60.0,100.0,150.0,FY18-19,757700.0,2500.0,2600.0,2250.0,1350.0,1000.0,100.0,750.0,450.0,1100.0,200.0,FY19-20,709000.0,2250.0,2350.0,1950.0,1600.0,1100.0,100.0,1000.0,500.0,500.0,150.0,FY20-21,277400.0,850.0,850.0,800.0,700.0,450.0,50.0,200.0,200.0,350.0,100.0,FY21-22,454200.0,1300.0,1350.0,1100.0,1350.0,950.0,50.0,500.0,300.0,400.0,100.0,FY22-23,529400,1650,1700,1400,1250,950,50,450,300,750,150
167,Epping,Mernda line,Whittlesea C  ,2,20005.0,-37.65238715,145.0301217,19.267084888919616,2718750.0,3800.0,2050.0,9500.0,7900.0,3750.0,75.80690587506336,64.0,100.0,131.57894736842107,FY18-19,887650.0,3050.0,3200.0,2400.0,1350.0,950.0,450.0,1250.0,700.0,700.0,100.0,FY19-20,537450.0,1800.0,1900.0,1450.0,850.0,600.0,250.0,1050.0,350.0,200.0,50.0,FY20-21,417650.0,1350.0,1400.0,1200.0,750.0,550.0,200.0,400.0,350.0,400.0,50.0,FY21-22,203100.0,650.0,700.0,550.0,350.0,250.0,100.0,300.0,150.0,100.0,50.0,FY22-23,672900,2200,2300,1700,1250,1000,300,800,550,650,100
121,Elsternwick,Sandringham line,Glen Eira C  ,1,19954.0,-37.88475311,145.0008979,7.966755266206023,2705350.0,4000.0,1950.0,8750.0,9250.0,2850.0,73.1414744645799,60.60606060606061,100.0,150.0,FY18-19,971200.0,3300.0,3250.0,3350.0,1600.0,1200.0,200.0,1650.0,650.0,600.0,200.0,FY19-20,421550.0,1400.0,1400.0,1450.0,750.0,500.0,100.0,700.0,250.0,300.0,50.0,FY20-21,385100.0,1200.0,1200.0,1150.0,900.0,650.0,50.0,400.0,300.0,300.0,100.0,FY21-22,217150.0,650.0,700.0,550.0,500.0,350.0,50.0,250.0,150.0,200.0,50.0,FY22-23,710350,2200,2200,2200,1600,1200,100,1000,450,550,150
190,Glenroy,Craigieburn line,Merry-bek C  ,1&2,20032.0,-37.70453633,144.9172204,13.384962334430142,2689650.0,3550.0,1750.0,8900.0,9250.0,3500.0,35.438317130405636,37.83783783783784,100.0,375.0,FY18-19,1193200.0,3900.0,4000.0,3650.0,2150.0,1650.0,450.0,1850.0,900.0,600.0,150.0,FY19-20,810850.0,2600.0,2750.0,2250.0,1600.0,1200.0,200.0,700.0,850.0,850.0,150.0,FY20-21,129500.0,400.0,400.0,300.0,300.0,250.0,50.0,150.0,100.0,50.0,50.0,FY21-22,133250.0,400.0,400.0,400.0,300.0,250.0,50.0,150.0,100.0,50.0,50.0,FY22-23,422850,1350,1350,1250,900,650,100,700,250,200,50
91,Aircraft,Werribee line,Hobsons Bay C  ,2,19924.0,-37.86660595,144.7608094,18.882525030941633,2688150.0,4550.0,1400.0,9300.0,7300.0,3450.0,269.61900049480454,270.0,100.0,40.0,FY18-19,303150.0,1050.0,1050.0,950.0,450.0,350.0,200.0,500.0,150.0,150.0,50.0,FY19-20,944750.0,3250.0,3350.0,2900.0,1300.0,950.0,450.0,1800.0,650.0,400.0,50.0,FY20-21,70150.0,250.0,200.0,250.0,100.0,100.0,50.0,100.0,50.0,50.0,50.0,FY21-22,552750.0,1800.0,1900.0,1550.0,950.0,700.0,250.0,800.0,450.0,350.0,50.0,FY22-23,817350,2750,2800,2500,1350,1050,350,1350,600,450,50
44,Mount Waverley,Glen Waverley line,Monash C  ,2,19875.0,-37.87525526,145.1280557,15.497560751257286,2671800.0,4150.0,2050.0,9100.0,8450.0,2750.0,73.93610535300573,62.06896551724138,100.0,133.33333333333331,FY18-19,820100.0,2800.0,2900.0,2550.0,1200.0,900.0,250.0,1450.0,500.0,550.0,50.0,FY19-20,662850.0,2200.0,2300.0,2050.0,1100.0,800.0,200.0,1100.0,400.0,450.0,50.0,FY20-21,244300.0,750.0,750.0,750.0,500.0,350.0,100.0,250.0,200.0,200.0,50.0,FY21-22,338200.0,1050.0,1150.0,800.0,750.0,550.0,50.0,450.0,250.0,350.0,50.0,FY22-23,606350,1900,2000,1600,1250,1050,150,900,400,500,50
47,Croydon,Ringwood line,Maroondah C  ,2,19878.0,-37.79543697,145.2805978,27.67073277069546,2602750.0,4250.0,1400.0,9050.0,7150.0,3450.0,53.765142420604604,46.875,100.0,208.33333333333334,FY18-19,916300.0,3150.0,3250.0,2750.0,1400.0,900.0,600.0,1600.0,600.0,450.0,50.0,FY19-20,726050.0,2450.0,2550.0,2100.0,1200.0,750.0,450.0,1200.0,450.0,350.0,50.0,FY20-21,140600.0,500.0,500.0,400.0,200.0,150.0,50.0,200.0,100.0,100.0,50.0,FY21-22,327150.0,1050.0,1100.0,950.0,650.0,400.0,150.0,500.0,250.0,200.0,50.0,FY22-23,492650,1650,1650,1550,900,600,200,750,350,300,50
122,Ripponlea,Sandringham line,Port Phillip C  ,1,19955.0,-37.87590643,144.9952366,6.86922463435198,2576800.0,4100.0,1750.0,8600.0,8400.0,2700.0,67.09313837483816,56.00000000000001,100.0,175.0,FY18-19,656550.0,2250.0,2300.0,2050.0,950.0,700.0,150.0,1250.0,450.0,400.0,100.0,FY19-20,797150.0,2600.0,2650.0,2550.0,1500.0,1000.0,150.0,1300.0,550.0,500.0,150.0,FY20-21,244200.0,800.0,800.0,700.0,500.0,350.0,50.0,300.0,200.0,200.0,50.0,FY21-22,438400.0,1350.0,1400.0,1250.0,1050.0,750.0,50.0,550.0,300.0,350.0,100.0,FY22-23,440500,1400,1450,1250,900,700,50,700,300,300,50
115,Sandringham,Sandringham line,Bayside C  ,2,19948.0,-37.95033018,145.0045614,15.046746470231762,2558550.0,3800.0,1600.0,8000.0,9750.0,2600.0,83.54177374221918,63.33333333333333,100.0,130.76923076923077,FY18-19,875550.0,2900.0,2800.0,3350.0,1500.0,1150.0,250.0,1500.0,500.0,400.0,100.0,FY19-20,369550.0,1200.0,1350.0,600.0,750.0,500.0,100.0,650.0,300.0,300.0,50.0,FY20-21,350400.0,1050.0,1050.0,1000.0,900.0,650.0,50.0,400.0,250.0,250.0,50.0,FY21-22,231600.0,750.0,750.0,600.0,550.0,350.0,50.0,300.0,200.0,200.0,50.0,FY22-23,731450,2150,2050,2600,2000,1400,150,950,400,450,100
193,Strathmore,Craigieburn line,Moonee Valley C  ,1,20035.0,-37.74359132,144.9273157,9.008941777631719,2525200.0,4100.0,1700.0,8550.0,8450.0,2900.0,297.5634778148243,212.5,100.0,32.0,FY18-19,389900.0,1350.0,1400.0,1150.0,550.0,400.0,150.0,800.0,200.0,200.0,50.0,FY19-20,479050.0,1600.0,1650.0,1400.0,850.0,650.0,200.0,900.0,300.0,200.0,50.0,FY20-21,239250.0,750.0,800.0,500.0,500.0,400.0,100.0,350.0,200.0,150.0,50.0,FY21-22,256800.0,800.0,800.0,750.0,600.0,400.0,100.0,350.0,200.0,150.0,50.0,FY22-23,1160200,3750,3900,3100,2250,1850,300,1700,750,1000,200
143,North Richmond,Inner city,Yarra C  ,1,19977.0,-37.81039836,144.9925003,2.4093305460792425,2519900.0,1550.0,4150.0,8400.0,8650.0,2700.0,58.18856558920024,50.0,100.0,166.66666666666669,FY18-19,929650.0,3050.0,3100.0,2750.0,1700.0,1350.0,100.0,600.0,650.0,1500.0,250.0,FY19-20,460950.0,1550.0,1650.0,1250.0,800.0,550.0,50.0,350.0,300.0,850.0,100.0,FY20-21,339950.0,1050.0,1050.0,1100.0,750.0,550.0,50.0,150.0,250.0,500.0,100.0,FY21-22,248400.0,800.0,850.0,650.0,500.0,300.0,50.0,150.0,150.0,450.0,50.0,FY22-23,540950,1700,1750,1450,1200,950,50,300,400,850,150
158,Yarraville,Werribee line,Maribyrnong C  ,1,19996.0,-37.81585044,144.8899337,6.77194085356059,2510950.0,4050.0,1550.0,8250.0,8750.0,2800.0,70.1171875,59.45945945945946,100.0,146.66666666666666,FY18-19,998400.0,3350.0,3400.0,3050.0,1750.0,1250.0,250.0,1850.0,650.0,500.0,200.0,FY19-20,273300.0,900.0,900.0,850.0,500.0,350.0,50.0,400.0,200.0,200.0,50.0,FY20-21,368300.0,1150.0,1150.0,1150.0,800.0,550.0,50.0,500.0,300.0,250.0,100.0,FY21-22,170900.0,500.0,500.0,450.0,500.0,350.0,50.0,200.0,100.0,150.0,50.0,FY22-23,700050,2200,2300,1850,1550,1150,150,1100,450,450,150
103,Rosanna,Hurstbridge line,Banyule C  ,2,19936.0,-37.7428786,145.0661403,12.095926246313663,2503700.0,3200.0,2800.0,8800.0,7400.0,2800.0,96.61962847803555,42.30769230769231,100.0,116.66666666666667,FY18-19,627150.0,2150.0,2250.0,1850.0,900.0,650.0,300.0,1300.0,350.0,200.0,50.0,FY19-20,647000.0,2200.0,2350.0,1750.0,950.0,750.0,150.0,700.0,500.0,900.0,100.0,FY20-21,239200.0,750.0,800.0,700.0,450.0,350.0,100.0,350.0,150.0,100.0,50.0,FY21-22,384400.0,1250.0,1350.0,950.0,700.0,500.0,50.0,300.0,300.0,650.0,100.0,FY22-23,605950,1950,2050,1550,1200,950,100,550,400,950,100
172,Reservoir,Mernda line,Darebin C  ,1&2,20010.0,-37.71688492,145.0069958,11.813623363521508,2490700.0,3400.0,1800.0,8450.0,7950.0,3400.0,72.05046660758042,65.38461538461539,100.0,142.10526315789474,FY18-19,959050.0,3200.0,3350.0,2800.0,1600.0,1150.0,350.0,1300.0,850.0,750.0,150.0,FY19-20,334100.0,1100.0,1150.0,1000.0,550.0,400.0,150.0,650.0,200.0,100.0,50.0,FY20-21,349200.0,1100.0,1150.0,1050.0,700.0,500.0,100.0,350.0,300.0,300.0,50.0,FY21-22,157350.0,500.0,500.0,450.0,350.0,250.0,100.0,250.0,100.0,50.0,50.0,FY22-23,691000,2200,2300,1900,1400,1050,250,850,550,600,150
157,Spotswood,Werribee line,Hobsons Bay C  ,1,19995.0,-37.83063888,144.8859335,7.248039340157524,2484950.0,4000.0,1600.0,8300.0,8500.0,2750.0,75.01812382195158,54.54545454545454,100.0,160.0,FY18-19,344850.0,1150.0,1150.0,1100.0,600.0,450.0,100.0,550.0,250.0,200.0,50.0,FY19-20,1037400.0,3450.0,3600.0,3000.0,1950.0,1150.0,300.0,1900.0,650.0,550.0,150.0,FY20-21,122500.0,400.0,350.0,400.0,300.0,200.0,50.0,150.0,100.0,100.0,50.0,FY21-22,721500.0,2300.0,2400.0,1850.0,1550.0,1050.0,150.0,1100.0,500.0,550.0,150.0,FY22-23,258700,750,800,700,700,550,50,300,150,200,50
116,Hampton,Sandringham line,Bayside C  ,2,19949.0,-37.93797681,145.0014706,13.647171655817921,2479800.0,3750.0,1450.0,7750.0,9350.0,2600.0,75.63236313236314,61.904761904761905,100.0,133.33333333333331,FY18-19,577200.0,1950.0,1950.0,2000.0,950.0,700.0,150.0,1050.0,350.0,300.0,100.0,FY19-20,813600.0,2600.0,2500.0,2850.0,1700.0,1250.0,250.0,1300.0,450.0,400.0,100.0,FY20-21,229200.0,700.0,700.0,650.0,550.0,400.0,50.0,250.0,200.0,150.0,50.0,FY21-22,423250.0,1200.0,1250.0,1150.0,1200.0,900.0,100.0,500.0,300.0,300.0,50.0,FY22-23,436550,1350,1350,1400,1000,700,50,650,300,300,100
70,Heatherdale,Ringwood line,Maroondah C  ,2,19901.0,-37.81889537,145.2127872,21.592955663297285,2443500.0,4000.0,1600.0,8400.0,7000.0,2900.0,47.85443142432745,40.74074074074074,100.0,233.33333333333334,FY18-19,605900.0,2150.0,2250.0,1850.0,650.0,500.0,350.0,1350.0,300.0,250.0,50.0,FY19-20,471200.0,1650.0,1750.0,1400.0,600.0,400.0,300.0,1000.0,250.0,200.0,50.0,FY20-21,852050.0,2600.0,2600.0,2550.0,2050.0,1500.0,150.0,650.0,700.0,900.0,200.0,FY21-22,224400.0,750.0,800.0,600.0,350.0,250.0,100.0,450.0,100.0,100.0,50.0,FY22-23,289950,1000,1000,950,400,300,100,550,150,150,50
169,Thomastown,Mernda line,Whittlesea C  ,2,20007.0,-37.68033809,145.0142789,15.895244883224171,2441350.0,3600.0,1200.0,8200.0,7700.0,3450.0,70.89015621125712,60.0,100.0,153.33333333333334,FY18-19,806600.0,2700.0,2750.0,2350.0,1400.0,1000.0,400.0,1250.0,650.0,400.0,100.0,FY19-20,477500.0,1650.0,1700.0,1500.0,700.0,450.0,300.0,850.0,300.0,150.0,50.0,FY20-21,343750.0,1100.0,1100.0,1050.0,700.0,550.0,150.0,400.0,300.0,200.0,50.0,FY21-22,241700.0,800.0,800.0,700.0,450.0,300.0,150.0,350.0,200.0,100.0,50.0,FY22-23,571800,1800,1850,1650,1200,950,250,750,450,350,50
140,Clifton Hill,Inner city,Yarra C  ,1,19974.0,-37.78865745,144.9954167,4.137241625982516,2429800.0,2550.0,2200.0,7350.0,11550.0,2600.0,72.40682759317241,60.0,100.0,142.85714285714286,FY18-19,990100.0,2850.0,2950.0,2650.0,2900.0,2050.0,150.0,1250.0,650.0,700.0,200.0,FY19-20,249450.0,850.0,900.0,700.0,400.0,250.0,50.0,150.0,200.0,400.0,50.0,FY20-21,347000.0,1000.0,1050.0,950.0,900.0,700.0,50.0,350.0,250.0,300.0,100.0,FY21-22,126350.0,400.0,400.0,350.0,250.0,200.0,50.0,50.0,100.0,200.0,50.0,FY22-23,716900,2000,2050,1900,2050,1850,100,750,450,600,150
195,Essendon,Craigieburn line,Moonee Valley C  ,1,20037.0,-37.7560117,144.9161975,8.23903731510679,2423100.0,4450.0,1400.0,8400.0,6800.0,2650.0,25.904530252356338,25.925925925925924,100.0,375.0,FY18-19,1480050.0,5050.0,5200.0,4500.0,2300.0,1550.0,500.0,2700.0,850.0,950.0,150.0,FY19-20,318600.0,1100.0,1150.0,900.0,450.0,300.0,100.0,650.0,200.0,150.0,50.0,FY20-21,109700.0,350.0,400.0,250.0,200.0,150.0,50.0,200.0,100.0,50.0,50.0,FY21-22,131350.0,400.0,400.0,400.0,300.0,200.0,50.0,200.0,100.0,50.0,50.0,FY22-23,383400,1250,1250,1100,750,600,100,700,250,200,50
203,Coolaroo,Craigieburn line,Hume C  ,2,44817.0,-37.66100253,144.9260556,17.857319367699983,2391000.0,3800.0,950.0,8150.0,7550.0,3450.0,92.271034996277,66.66666666666666,100.0,80.0,FY18-19,335750.0,1200.0,1200.0,1100.0,400.0,300.0,150.0,750.0,200.0,100.0,50.0,FY19-20,488650.0,1650.0,1700.0,1450.0,800.0,550.0,300.0,750.0,350.0,250.0,50.0,FY20-21,560500.0,1750.0,1900.0,1250.0,1150.0,850.0,350.0,800.0,450.0,250.0,50.0,FY21-22,696300.0,2200.0,2250.0,1950.0,1550.0,1100.0,450.0,1000.0,500.0,250.0,50.0,FY22-23,309800,1050,1100,900,500,350,250,500,200,100,50
192,Pascoe Vale,Craigieburn line,Merry-bek C ,1&2,20034.0,-37.73075596,144.9281956,10.314132182616303,2367050.0,3900.0,1100.0,7900.0,7950.0,2950.0,32.87483851356486,30.76923076923077,100.0,280.0,FY18-19,657950.0,2200.0,2250.0,2050.0,1100.0,800.0,250.0,1300.0,400.0,250.0,50.0,FY19-20,1037400.0,3350.0,3450.0,3050.0,2000.0,1500.0,400.0,1550.0,850.0,550.0,100.0,FY20-21,218300.0,700.0,750.0,500.0,450.0,350.0,100.0,300.0,200.0,100.0,50.0,FY21-22,237100.0,750.0,750.0,700.0,550.0,400.0,100.0,350.0,150.0,100.0,50.0,FY22-23,216300,700,700,650,450,350,50,400,150,100,50
168,Lalor,Mernda line,Whittlesea C  ,2,20006.0,-37.66585075,145.0171932,17.518050991017653,2362050.0,3400.0,1450.0,8200.0,6900.0,3350.0,64.22609701677547,54.54545454545454,100.0,170.0,FY18-19,605050.0,2100.0,2150.0,1800.0,900.0,650.0,450.0,1100.0,350.0,200.0,50.0,FY19-20,690350.0,2350.0,2450.0,1950.0,1100.0,750.0,350.0,950.0,550.0,500.0,100.0,FY20-21,243550.0,800.0,800.0,750.0,450.0,350.0,150.0,300.0,200.0,150.0,50.0,FY21-22,434500.0,1400.0,1500.0,1100.0,800.0,600.0,200.0,450.0,350.0,450.0,50.0,FY22-23,388600,1250,1300,1100,700,600,200,600,250,150,50
179,Merri,Mernda line,Darebin C  ,1,20017.0,-37.77784668,144.9929725,5.045887536097129,2361200.0,2650.0,2450.0,8000.0,8000.0,3000.0,832.1801068430425,550.0,100.0,11.904761904761903,FY18-19,196550.0,650.0,700.0,500.0,350.0,250.0,50.0,300.0,150.0,200.0,50.0,FY19-20,308200.0,1000.0,1050.0,850.0,600.0,400.0,50.0,450.0,200.0,300.0,50.0,FY20-21,70400.0,200.0,250.0,200.0,150.0,100.0,50.0,100.0,50.0,50.0,50.0,FY21-22,150400.0,500.0,500.0,400.0,300.0,250.0,50.0,150.0,100.0,200.0,50.0,FY22-23,1635650,5300,5500,4550,3150,2450,400,1650,1400,1700,300
104,Moorabbin,Frankston line,Bayside C  ,2,19937.0,-37.93435329,145.0367383,14.2834443786589,2356450.0,3600.0,1600.0,7950.0,7650.0,2750.0,68.55231991082626,111.76470588235294,100.0,154.54545454545453,FY18-19,717700.0,2350.0,2400.0,2100.0,1350.0,950.0,150.0,850.0,550.0,700.0,150.0,FY19-20,552500.0,1850.0,1950.0,1600.0,900.0,650.0,300.0,1100.0,300.0,200.0,50.0,FY20-21,300700.0,900.0,900.0,950.0,750.0,550.0,50.0,200.0,250.0,300.0,50.0,FY21-22,293550.0,950.0,1000.0,750.0,600.0,400.0,100.0,500.0,200.0,150.0,50.0,FY22-23,492000,1650,1700,1250,850,650,200,950,300,250,50
56,Merinda Park,Dandenong line,Casey C  ,2,19887.0,-38.07900048,145.2635114,38.941349791740286,2350050.0,3200.0,1750.0,8350.0,6250.0,3450.0,129.56507574523536,115.38461538461537,100.0,75.0,FY18-19,306950.0,1100.0,1200.0,750.0,300.0,250.0,250.0,650.0,150.0,50.0,50.0,FY19-20,301600.0,1050.0,1200.0,650.0,350.0,250.0,300.0,650.0,200.0,100.0,50.0,FY20-21,1159900.0,3800.0,3850.0,3500.0,2050.0,1600.0,250.0,850.0,1000.0,1450.0,250.0,FY21-22,183900.0,600.0,650.0,400.0,300.0,200.0,150.0,300.0,150.0,50.0,50.0,FY22-23,397700,1350,1450,1000,550,400,300,750,250,100,50
32,Mordialloc,Frankston line,Kingston C  ,2,19863.0,-38.00658295,145.0876594,23.460768127143137,2347450.0,3250.0,1800.0,7800.0,8800.0,2800.0,55.1584938124545,47.82608695652174,100.0,200.0,FY18-19,755550.0,2450.0,2550.0,1950.0,1550.0,1100.0,300.0,1150.0,500.0,550.0,100.0,FY19-20,550700.0,1750.0,1900.0,1300.0,1200.0,800.0,200.0,800.0,400.0,400.0,100.0,FY20-21,339550.0,1050.0,1100.0,900.0,800.0,500.0,100.0,350.0,250.0,300.0,50.0,FY21-22,284900.0,900.0,900.0,750.0,650.0,450.0,100.0,400.0,200.0,200.0,50.0,FY22-23,416750,1300,1350,1000,1000,750,100,550,300,350,50
74,Hawthorn,Ringwood line,Boroondara C  ,1,19905.0,-37.82182601,145.0228987,4.928703575688827,2321350.0,2950.0,3000.0,8200.0,7000.0,2250.0,66.19658722324073,52.38095238095239,100.0,144.44444444444443,FY18-19,709100.0,2500.0,2600.0,2050.0,950.0,700.0,100.0,1050.0,450.0,900.0,100.0,FY19-20,553450.0,1900.0,2050.0,1550.0,750.0,550.0,100.0,800.0,400.0,700.0,50.0,FY20-21,303500.0,850.0,900.0,750.0,1000.0,650.0,50.0,250.0,200.0,350.0,50.0,FY21-22,285900.0,950.0,1000.0,700.0,550.0,400.0,50.0,300.0,200.0,400.0,50.0,FY22-23,469400,1550,1650,1250,800,650,50,550,350,650,50
86,Murrumbeena,Dandenong line,Glen Eira C  ,1,19919.0,-37.89019832,145.0673749,11.900561270189634,2320050.0,3900.0,1550.0,8250.0,7050.0,2800.0,57.04022066842004,43.75,100.0,190.0,FY18-19,779450.0,2650.0,2900.0,1850.0,1200.0,850.0,250.0,1600.0,600.0,350.0,100.0,FY19-20,501050.0,1650.0,1850.0,1000.0,850.0,600.0,150.0,850.0,400.0,350.0,100.0,FY20-21,318600.0,1000.0,1050.0,1000.0,600.0,450.0,100.0,400.0,250.0,200.0,50.0,FY21-22,276350.0,850.0,900.0,750.0,600.0,400.0,50.0,350.0,200.0,250.0,50.0,FY22-23,444600,1450,1550,950,900,600,100,700,350,400,50
208,Southland,Frankston line,Bayside C  ,2,52095.0,-37.958758,145.049124,17.201592575328593,2315900.0,3300.0,1350.0,7700.0,7600.0,3050.0,28.53940643772976,100.0,100.0,280.0,FY18-19,557650.0,1600.0,1600.0,1600.0,1550.0,1300.0,50.0,300.0,500.0,600.0,150.0,FY19-20,554250.0,1850.0,1900.0,1700.0,950.0,600.0,300.0,850.0,350.0,300.0,100.0,FY20-21,411450.0,1400.0,1400.0,1450.0,600.0,400.0,200.0,700.0,300.0,150.0,50.0,FY21-22,633400.0,2150.0,2250.0,1850.0,1000.0,700.0,300.0,1150.0,450.0,250.0,50.0,FY22-23,159150,550,550,450,300,200,100,300,100,50,50
160,Sunbury,Sunbury line,Hume C  ,2,15351.0,-37.57909097,144.7273188,33.942269464941944,2269000.0,3000.0,1250.0,7450.0,7650.0,3150.0,72.34082280450613,65.0,100.0,173.33333333333334,FY18-19,803350.0,2600.0,2700.0,2400.0,1550.0,1050.0,700.0,1000.0,500.0,400.0,100.0,FY19-20,379400.0,1300.0,1350.0,1150.0,600.0,400.0,100.0,750.0,250.0,150.0,50.0,FY20-21,301950.0,950.0,950.0,1000.0,650.0,450.0,200.0,300.0,200.0,200.0,50.0,FY21-22,203150.0,650.0,650.0,550.0,450.0,300.0,50.0,300.0,150.0,150.0,50.0,FY22-23,581150,1800,1800,1850,1300,900,350,650,350,350,50
119,North Brighton,Sandringham line,Bayside C  ,1&2,19952.0,-37.90488721,145.002605,10.123144335619513,2252900.0,3000.0,1800.0,7200.0,8150.0,2400.0,72.21512807030722,56.52173913043478,100.0,155.55555555555557,FY18-19,665650.0,2250.0,2250.0,2250.0,1100.0,750.0,150.0,1150.0,450.0,450.0,100.0,FY19-20,567700.0,1750.0,1800.0,1700.0,1250.0,950.0,100.0,700.0,400.0,450.0,100.0,FY20-21,246150.0,750.0,750.0,700.0,600.0,400.0,50.0,250.0,200.0,200.0,50.0,FY21-22,292700.0,900.0,900.0,800.0,750.0,550.0,50.0,250.0,250.0,300.0,50.0,FY22-23,480700,1500,1500,1500,1050,750,50,650,300,400,100
204,Lynbrook,Dandenong line,Casey C  ,2,45793.0,-38.05734118,145.2492751,36.323843806055834,2246200.0,3700.0,950.0,7700.0,6850.0,3150.0,130.6647880107596,76.47058823529412,100.0,84.61538461538461,FY18-19,390350.0,1400.0,1500.0,950.0,400.0,300.0,250.0,850.0,250.0,100.0,50.0,FY19-20,1126250.0,3700.0,3850.0,3150.0,2050.0,1450.0,700.0,1900.0,750.0,400.0,100.0,FY20-21,105150.0,350.0,350.0,200.0,200.0,150.0,50.0,150.0,100.0,50.0,50.0,FY21-22,114400.0,350.0,350.0,350.0,250.0,200.0,50.0,150.0,100.0,50.0,50.0,FY22-23,510050,1650,1650,1500,1050,800,200,650,350,350,100
144,West Richmond,Inner city,Yarra C  ,1,19978.0,-37.81494896,144.9914228,2.180640634375841,2238750.0,1500.0,3500.0,7500.0,7300.0,2600.0,72.99148644681476,62.5,100.0,133.33333333333331,FY18-19,510950.0,1700.0,1750.0,1500.0,850.0,600.0,50.0,400.0,400.0,750.0,150.0,FY19-20,738350.0,2400.0,2450.0,2100.0,1400.0,1100.0,50.0,500.0,550.0,1150.0,200.0,FY20-21,265250.0,900.0,900.0,850.0,450.0,300.0,50.0,150.0,200.0,450.0,100.0,FY21-22,351250.0,1100.0,1150.0,950.0,800.0,550.0,50.0,200.0,250.0,550.0,100.0,FY22-23,372950,1200,1250,1050,700,550,50,250,250,600,150
166,Albion,Sunbury line,Brimbank C  ,1&2,20004.0,-37.77765281,144.8247036,13.29179812988329,2231400.0,3700.0,1100.0,7650.0,6650.0,2850.0,49.0088908322402,44.44444444444444,100.0,177.77777777777777,FY18-19,686100.0,2350.0,2450.0,2100.0,1000.0,700.0,300.0,1350.0,450.0,250.0,50.0,FY19-20,659350.0,2150.0,2250.0,1800.0,1250.0,900.0,250.0,1000.0,550.0,350.0,50.0,FY20-21,204500.0,650.0,650.0,700.0,350.0,250.0,100.0,300.0,150.0,100.0,50.0,FY21-22,345200.0,1100.0,1150.0,950.0,650.0,500.0,100.0,450.0,300.0,250.0,50.0,FY22-23,336250,1100,1150,1000,600,450,150,600,250,150,50
46,Mooroolbark,Ringwood line,Yarra Ranges S  ,2,19877.0,-37.78474883,145.3124024,30.578476160773842,2220550.0,3700.0,950.0,7600.0,6350.0,3000.0,56.214082946756214,44.44444444444444,100.0,172.72727272727272,FY18-19,722150.0,2500.0,2600.0,2100.0,1100.0,750.0,500.0,1350.0,400.0,250.0,50.0,FY19-20,568300.0,1950.0,2000.0,1600.0,900.0,600.0,400.0,1050.0,300.0,200.0,50.0,FY20-21,311100.0,1000.0,1000.0,1000.0,600.0,400.0,150.0,400.0,250.0,200.0,50.0,FY21-22,213050.0,650.0,650.0,650.0,450.0,300.0,100.0,300.0,150.0,100.0,50.0,FY22-23,405950,1350,1350,1250,750,500,250,600,250,200,50
53,Narre Warren,Dandenong line,Casey C  ,2,19884.0,-38.02780932,145.3039694,37.63643441625147,2213300.0,3250.0,1150.0,7950.0,5900.0,3550.0,65.22696219826932,54.54545454545454,100.0,161.53846153846155,FY18-19,658700.0,2300.0,2450.0,1750.0,900.0,600.0,500.0,1100.0,450.0,300.0,100.0,FY19-20,587550.0,2000.0,2150.0,1350.0,950.0,650.0,500.0,900.0,450.0,250.0,50.0,FY20-21,219250.0,750.0,750.0,750.0,300.0,200.0,150.0,250.0,150.0,150.0,50.0,FY21-22,318150.0,1050.0,1100.0,850.0,550.0,400.0,200.0,400.0,250.0,200.0,50.0,FY22-23,429650,1400,1500,1150,750,600,250,600,350,250,50
205,Cardinia Road,Dandenong line,Cardinia S  ,2,45794.0,-38.07129047,145.437791,49.95871676990928,2200600.0,4350.0,800.0,8000.0,5350.0,3000.0,305.4340709702763,328.57142857142856,100.0,50.0,FY18-19,381850.0,1350.0,1450.0,1000.0,450.0,300.0,400.0,700.0,250.0,100.0,50.0,FY19-20,274750.0,950.0,1000.0,850.0,350.0,250.0,100.0,600.0,150.0,100.0,50.0,FY20-21,174550.0,600.0,650.0,450.0,250.0,150.0,100.0,350.0,100.0,50.0,50.0,FY21-22,203150.0,700.0,750.0,450.0,300.0,200.0,150.0,400.0,150.0,100.0,50.0,FY22-23,1166300,4000,4150,3350,1800,1300,500,2300,800,450,100
159,Seddon,Werribee line,Maribyrnong C  ,1,19997.0,-37.80900514,144.8956716,6.347509128430443,2199950.0,3900.0,1200.0,7400.0,7200.0,2400.0,71.64849262347659,60.0,100.0,128.57142857142858,FY18-19,467700.0,1600.0,1650.0,1400.0,700.0,450.0,100.0,1000.0,300.0,200.0,50.0,FY19-20,785800.0,2600.0,2650.0,2300.0,1450.0,1050.0,200.0,1400.0,500.0,400.0,150.0,FY20-21,168900.0,550.0,550.0,500.0,350.0,250.0,50.0,250.0,150.0,100.0,50.0,FY21-22,442450.0,1350.0,1400.0,1200.0,1000.0,750.0,100.0,650.0,300.0,300.0,100.0,FY22-23,335100,1050,1150,850,700,500,50,600,250,200,50
80,Gardiner,Glen Waverley line,Stonnington C  ,1,19912.0,-37.85327908,145.0516547,8.392769966321415,2186100.0,2950.0,1700.0,6900.0,8200.0,2350.0,71.78207739307535,55.55555555555556,100.0,150.0,FY18-19,491000.0,1650.0,1650.0,1550.0,800.0,600.0,100.0,900.0,300.0,350.0,50.0,FY19-20,389800.0,1300.0,1300.0,1200.0,750.0,500.0,100.0,700.0,250.0,250.0,50.0,FY20-21,754300.0,2300.0,2300.0,2250.0,1650.0,1350.0,150.0,600.0,700.0,700.0,150.0,FY21-22,198550.0,600.0,600.0,500.0,500.0,400.0,50.0,250.0,100.0,150.0,50.0,FY22-23,352450,1050,1050,950,900,750,50,500,200,250,50
147,Greensborough,Hurstbridge line,Banyule C  ,2,19985.0,-37.70395408,145.1082474,17.77441726913493,2183950.0,3650.0,1050.0,7500.0,6800.0,2750.0,43.82246003978871,40.0,100.0,225.0,FY18-19,728850.0,2450.0,2500.0,2200.0,1200.0,850.0,450.0,1250.0,400.0,350.0,50.0,FY19-20,577000.0,1950.0,2050.0,1600.0,1000.0,650.0,400.0,1100.0,250.0,200.0,50.0,FY20-21,254900.0,800.0,800.0,800.0,500.0,350.0,100.0,300.0,200.0,150.0,50.0,FY21-22,303800.0,950.0,1050.0,750.0,650.0,450.0,150.0,500.0,200.0,150.0,50.0,FY22-23,319400,1000,1100,750,650,500,150,500,200,200,50
35,Cheltenham,Frankston line,Bayside C  ,2,19866.0,-37.96664989,145.0545579,18.19814054872183,2143750.0,3600.0,1600.0,7550.0,6450.0,2400.0,54.65144522710712,46.666666666666664,100.0,180.0,FY18-19,823400.0,2800.0,2950.0,2050.0,1350.0,1000.0,300.0,1500.0,500.0,600.0,100.0,FY19-20,454850.0,1550.0,1650.0,1150.0,700.0,450.0,150.0,850.0,250.0,350.0,50.0,FY20-21,95700.0,300.0,300.0,300.0,200.0,150.0,50.0,100.0,50.0,50.0,50.0,FY21-22,319800.0,1000.0,1050.0,900.0,650.0,450.0,100.0,450.0,250.0,250.0,50.0,FY22-23,450000,1450,1600,950,900,600,150,700,300,350,50
112,Armadale,Dandenong line,Stonnington C  ,1,19945.0,-37.85645238,145.0193255,6.255881622798614,2138050.0,2850.0,2500.0,7700.0,6900.0,2500.0,63.61919478066787,61.111111111111114,100.0,162.5,FY18-19,582450.0,1950.0,2150.0,1200.0,1050.0,750.0,100.0,900.0,450.0,600.0,100.0,FY19-20,586650.0,1900.0,2200.0,950.0,1100.0,750.0,100.0,850.0,450.0,700.0,150.0,FY20-21,227300.0,750.0,750.0,650.0,450.0,300.0,50.0,250.0,200.0,250.0,50.0,FY21-22,371100.0,1200.0,1250.0,950.0,750.0,550.0,50.0,300.0,300.0,500.0,100.0,FY22-23,370550,1200,1350,650,700,500,50,550,300,450,50
142,Collingwood,Inner city,Yarra C  ,1,19976.0,-37.80452593,144.9937497,2.8079062562137254,2128850.0,1700.0,3450.0,7250.0,6900.0,2150.0,73.17742935601026,62.5,100.0,137.5,FY18-19,564450.0,1900.0,2000.0,1550.0,950.0,650.0,50.0,400.0,350.0,1050.0,150.0,FY19-20,612450.0,2000.0,2100.0,1750.0,1100.0,850.0,50.0,700.0,400.0,800.0,150.0,FY20-21,221100.0,750.0,750.0,650.0,400.0,250.0,50.0,100.0,150.0,400.0,50.0,FY21-22,317800.0,950.0,1000.0,800.0,800.0,550.0,50.0,250.0,200.0,450.0,100.0,FY22-23,413050,1350,1400,1100,800,550,50,250,250,750,100
199,Kensington,Craigieburn line,Melbourne C  ,1,20041.0,-37.79378022,144.9305244,4.205435838030409,2097600.0,3350.0,1300.0,7000.0,6950.0,2350.0,81.33383359909952,77.77777777777779,100.0,120.0,FY18-19,533050.0,1750.0,1800.0,1550.0,1000.0,750.0,100.0,900.0,400.0,350.0,100.0,FY19-20,488800.0,1650.0,1700.0,1400.0,850.0,600.0,150.0,1000.0,300.0,200.0,50.0,FY20-21,302600.0,950.0,950.0,950.0,600.0,400.0,50.0,350.0,250.0,250.0,50.0,FY21-22,339600.0,1050.0,1100.0,900.0,800.0,550.0,50.0,400.0,300.0,250.0,50.0,FY22-23,433550,1400,1450,1300,800,600,150,700,300,250,50
174,Preston,Mernda line,Darebin C  ,1&2,20012.0,-37.73867424,145.000522,9.332808603691928,2096300.0,2900.0,1550.0,6950.0,7300.0,2550.0,39.499159469016284,55.00000000000001,100.0,383.33333333333337,FY18-19,862550.0,2750.0,2900.0,2300.0,1900.0,1250.0,200.0,1000.0,800.0,750.0,150.0,FY19-20,399650.0,1350.0,1400.0,1200.0,600.0,400.0,200.0,800.0,250.0,150.0,50.0,FY20-21,317300.0,950.0,950.0,950.0,800.0,500.0,50.0,250.0,300.0,300.0,50.0,FY21-22,176100.0,550.0,600.0,500.0,350.0,250.0,50.0,300.0,100.0,100.0,50.0,FY22-23,340700,1100,1100,950,700,550,50,550,200,250,50
45,Lilydale,Ringwood line,Yarra Ranges S  ,2,19876.0,-37.75551777,145.3477102,34.17934975654722,2081950.0,2750.0,1250.0,6850.0,7300.0,2850.0,55.59196466733153,45.0,100.0,190.0,FY18-19,701900.0,2300.0,2400.0,2050.0,1300.0,950.0,400.0,1000.0,500.0,400.0,50.0,FY19-20,556700.0,1800.0,1850.0,1550.0,1150.0,800.0,300.0,750.0,400.0,350.0,50.0,FY20-21,197000.0,650.0,650.0,600.0,400.0,250.0,100.0,300.0,150.0,100.0,50.0,FY21-22,236150.0,700.0,700.0,700.0,550.0,400.0,100.0,250.0,200.0,150.0,50.0,FY22-23,390200,1200,1250,1150,850,650,150,450,300,250,50
38,Boronia,Ringwood line,Knox C  ,2,19869.0,-37.8604518,145.2843851,28.265318597483102,2055750.0,3450.0,950.0,7100.0,5950.0,2650.0,52.53874538745388,44.0,100.0,200.0,FY18-19,677500.0,2300.0,2400.0,2000.0,1050.0,700.0,400.0,1250.0,450.0,250.0,50.0,FY19-20,539350.0,1800.0,1900.0,1550.0,850.0,600.0,300.0,1000.0,350.0,200.0,50.0,FY20-21,213500.0,700.0,700.0,650.0,400.0,300.0,50.0,250.0,150.0,150.0,50.0,FY21-22,269450.0,850.0,900.0,750.0,500.0,350.0,100.0,400.0,200.0,150.0,50.0,FY22-23,355950,1150,1200,1100,700,500,150,550,250,200,50
146,Watsonia,Hurstbridge line,Banyule C  ,2,19984.0,-37.71095798,145.0837934,15.7462657235849,2054350.0,3800.0,1100.0,7250.0,6000.0,2500.0,54.23480083857443,51.724137931034484,100.0,177.77777777777777,FY18-19,715500.0,2450.0,2550.0,2150.0,1050.0,700.0,450.0,1450.0,300.0,250.0,50.0,FY19-20,469500.0,1600.0,1700.0,1300.0,750.0,550.0,200.0,850.0,300.0,300.0,50.0,FY20-21,242150.0,800.0,800.0,650.0,450.0,300.0,150.0,400.0,150.0,150.0,50.0,FY21-22,239150.0,800.0,850.0,550.0,500.0,350.0,100.0,350.0,200.0,200.0,50.0,FY22-23,388050,1250,1350,900,750,600,200,750,200,200,50
206,South Morang,Mernda line,Whittlesea C  ,2,45795.0,-37.6491588,145.0670324,20.765079615325682,2040250.0,2900.0,1200.0,7000.0,6300.0,3050.0,46.63019570244205,14.285714285714285,100.0,227.27272727272728,FY18-19,886550.0,3000.0,3050.0,2650.0,1500.0,1050.0,550.0,1400.0,550.0,450.0,150.0,FY19-20,352250.0,1250.0,1400.0,750.0,450.0,300.0,250.0,750.0,250.0,100.0,50.0,FY20-21,193250.0,650.0,650.0,600.0,300.0,200.0,150.0,250.0,150.0,50.0,50.0,FY21-22,194800.0,650.0,700.0,500.0,300.0,200.0,150.0,300.0,150.0,100.0,50.0,FY22-23,413400,1200,1200,1100,1100,900,50,200,400,500,100
76,East Richmond,Inner city,Yarra C  ,1,19907.0,-37.82639995,144.9970657,2.7929612831987045,1981500.0,1150.0,4700.0,7600.0,3300.0,1900.0,68.59349227770281,62.5,100.0,122.22222222222223,FY18-19,666900.0,2500.0,2600.0,2200.0,500.0,300.0,50.0,400.0,300.0,1650.0,200.0,FY19-20,506300.0,1850.0,1950.0,1600.0,450.0,250.0,50.0,300.0,250.0,1200.0,150.0,FY20-21,99050.0,350.0,450.0,100.0,100.0,50.0,50.0,50.0,100.0,250.0,50.0,FY21-22,251800.0,850.0,900.0,700.0,400.0,250.0,50.0,150.0,150.0,550.0,50.0,FY22-23,457450,1600,1700,1350,600,400,50,250,250,1050,150
173,Regent,Mernda line,Darebin C  ,1&2,20011.0,-37.72840277,145.0027726,10.480419969866357,1975550.0,2900.0,1300.0,6600.0,6400.0,2450.0,66.08509335782064,57.89473684210527,100.0,157.14285714285714,FY18-19,490050.0,1650.0,1700.0,1400.0,800.0,600.0,200.0,950.0,300.0,200.0,50.0,FY19-20,517550.0,1700.0,1750.0,1600.0,900.0,650.0,200.0,650.0,450.0,400.0,50.0,FY20-21,170900.0,550.0,550.0,550.0,350.0,250.0,50.0,250.0,100.0,100.0,50.0,FY21-22,473200.0,1500.0,1550.0,1300.0,1050.0,700.0,150.0,500.0,400.0,450.0,100.0,FY22-23,323850,1050,1050,950,600,500,100,550,200,150,50
145,Macleod,Hurstbridge line,Banyule C  ,2,19983.0,-37.7260123,145.0691433,13.637312522207704,1952450.0,2750.0,1950.0,6900.0,5450.0,2300.0,73.74707651186101,69.56521739130434,100.0,130.0,FY18-19,598600.0,2100.0,2200.0,1750.0,800.0,550.0,250.0,1150.0,350.0,350.0,50.0,FY19-20,436500.0,1450.0,1500.0,1250.0,800.0,550.0,50.0,350.0,350.0,650.0,150.0,FY20-21,204450.0,650.0,700.0,550.0,400.0,300.0,50.0,300.0,150.0,150.0,50.0,FY21-22,271450.0,900.0,950.0,750.0,500.0,300.0,50.0,150.0,200.0,500.0,100.0,FY22-23,441450,1450,1550,1150,700,550,150,800,300,300,50
108,Ormond,Frankston line,Glen Eira C  ,1&2,19941.0,-37.90321167,145.0396134,11.393504040323574,1931650.0,3000.0,1400.0,6750.0,6800.0,2250.0,49.53350296861747,48.0,100.0,225.0,FY18-19,766350.0,2500.0,2750.0,1700.0,1400.0,1100.0,200.0,1250.0,600.0,550.0,100.0,FY19-20,324500.0,1100.0,1200.0,650.0,550.0,400.0,100.0,600.0,250.0,200.0,50.0,FY20-21,265150.0,800.0,850.0,750.0,600.0,450.0,50.0,300.0,200.0,200.0,50.0,FY21-22,196050.0,600.0,600.0,500.0,450.0,350.0,50.0,250.0,150.0,150.0,50.0,FY22-23,379600,1200,1350,650,850,650,50,600,300,300,50
118,Middle Brighton,Sandringham line,Bayside C  ,1&2,19951.0,-37.91513441,144.9962991,11.0705738687175,1931250.0,2300.0,1550.0,5900.0,7650.0,2150.0,69.42633159938457,55.55555555555556,100.0,150.0,FY18-19,682450.0,2200.0,2200.0,2250.0,1300.0,1100.0,100.0,900.0,500.0,550.0,150.0,FY19-20,345550.0,1100.0,1050.0,1300.0,700.0,550.0,100.0,500.0,200.0,200.0,50.0,FY20-21,243050.0,750.0,750.0,700.0,550.0,400.0,50.0,200.0,200.0,250.0,50.0,FY21-22,186400.0,500.0,500.0,500.0,550.0,450.0,50.0,200.0,150.0,100.0,50.0,FY22-23,473800,1450,1400,1450,1150,900,50,500,350,450,100
54,Hallam,Dandenong line,Casey C  ,2,19885.0,-38.01774038,145.2697768,34.60301928961388,1912150.0,2900.0,1050.0,7000.0,4450.0,3050.0,76.48578811369508,76.47058823529412,100.0,141.66666666666669,FY18-19,522450.0,1850.0,2000.0,1350.0,600.0,400.0,450.0,850.0,350.0,300.0,50.0,FY19-20,463500.0,1600.0,1750.0,1100.0,600.0,400.0,400.0,750.0,300.0,250.0,50.0,FY20-21,407700.0,1350.0,1400.0,1200.0,700.0,500.0,300.0,500.0,300.0,150.0,50.0,FY21-22,118900.0,400.0,400.0,350.0,150.0,150.0,50.0,150.0,100.0,100.0,50.0,FY22-23,399600,1400,1450,1050,550,400,250,650,300,250,50
120,Gardenvale,Sandringham line,Glen Eira C  ,1,19953.0,-37.89669508,145.0041684,9.308431461338891,1904550.0,2850.0,1500.0,6250.0,6300.0,2050.0,68.79644821928386,55.55555555555556,100.0,142.85714285714286,FY18-19,518050.0,1800.0,1750.0,1800.0,800.0,550.0,100.0,900.0,350.0,400.0,50.0,FY19-20,554050.0,1850.0,1850.0,1750.0,1050.0,700.0,100.0,900.0,400.0,350.0,100.0,FY20-21,185050.0,600.0,600.0,500.0,400.0,250.0,50.0,200.0,150.0,200.0,50.0,FY21-22,291000.0,900.0,900.0,800.0,700.0,500.0,50.0,350.0,250.0,250.0,50.0,FY22-23,356400,1100,1150,1100,800,550,50,500,250,300,50
41,Highett,Frankston line,Bayside C  ,2,19872.0,-37.948425,145.0418718,15.892143075265961,1872350.0,2750.0,1200.0,6200.0,7000.0,2200.0,57.59244689221086,52.94117647058824,100.0,171.42857142857142,FY18-19,508400.0,1650.0,1750.0,1200.0,1000.0,750.0,150.0,850.0,350.0,300.0,100.0,FY19-20,328050.0,1050.0,1150.0,800.0,650.0,400.0,100.0,550.0,250.0,200.0,50.0,FY20-21,530400.0,1600.0,1600.0,1500.0,1350.0,950.0,100.0,600.0,400.0,350.0,100.0,FY21-22,212700.0,650.0,700.0,600.0,500.0,300.0,50.0,300.0,150.0,150.0,50.0,FY22-23,292800,950,1000,600,650,450,50,450,250,200,50
194,Glenbervie,Craigieburn line,Moonee Valley C  ,1,20036.0,-37.74720985,144.9209387,8.880111025629303,1856200.0,3200.0,1000.0,6200.0,6100.0,2050.0,170.16806722689074,100.0,100.0,61.53846153846154,FY18-19,380800.0,1300.0,1350.0,1200.0,550.0,400.0,150.0,850.0,200.0,100.0,50.0,FY19-20,545050.0,1800.0,1850.0,1600.0,950.0,650.0,200.0,1050.0,350.0,200.0,50.0,FY20-21,130750.0,400.0,450.0,250.0,250.0,150.0,50.0,200.0,100.0,100.0,50.0,FY21-22,151600.0,500.0,500.0,400.0,300.0,200.0,50.0,250.0,100.0,100.0,50.0,FY22-23,648000,2000,2050,1900,1550,1100,100,850,450,500,100
170,Keon Park,Mernda line,Darebin C  ,2,20008.0,-37.69487012,145.0118838,14.28214752239425,1838950.0,2350.0,1400.0,6150.0,5850.0,2400.0,68.49729185035899,60.0,100.0,166.66666666666669,FY18-19,396950.0,1300.0,1350.0,1100.0,700.0,500.0,150.0,500.0,300.0,350.0,50.0,FY19-20,600300.0,2000.0,2050.0,1850.0,1050.0,700.0,300.0,900.0,500.0,300.0,50.0,FY20-21,178750.0,600.0,600.0,550.0,350.0,200.0,50.0,150.0,150.0,200.0,50.0,FY21-22,391050.0,1200.0,1250.0,1150.0,850.0,600.0,150.0,500.0,300.0,250.0,50.0,FY22-23,271900,900,900,800,500,400,50,300,200,300,50
79,Tooronga,Glen Waverley line,Stonnington C  ,1,19911.0,-37.84936553,145.0417337,7.419232896062809,1838050.0,2550.0,2200.0,6400.0,5050.0,1750.0,71.66982595209375,64.70588235294117,100.0,157.14285714285714,FY18-19,580300.0,2050.0,2100.0,1850.0,650.0,500.0,100.0,850.0,350.0,750.0,100.0,FY19-20,456150.0,1600.0,1650.0,1450.0,600.0,400.0,100.0,650.0,250.0,600.0,50.0,FY20-21,157650.0,500.0,500.0,450.0,400.0,300.0,50.0,200.0,100.0,100.0,50.0,FY21-22,228050.0,750.0,750.0,600.0,450.0,350.0,50.0,300.0,150.0,250.0,50.0,FY22-23,415900,1350,1400,1150,750,650,50,550,250,500,50
106,Bentleigh,Frankston line,Glen Eira C  ,1&2,19939.0,-37.91742457,145.0369951,12.620019639221177,1837250.0,2650.0,1400.0,6350.0,6800.0,2500.0,57.04080230800934,50.0,100.0,166.66666666666669,FY18-19,727900.0,2350.0,2500.0,1700.0,1500.0,1200.0,200.0,1100.0,650.0,450.0,150.0,FY19-20,249700.0,850.0,1000.0,450.0,350.0,250.0,100.0,500.0,150.0,200.0,50.0,FY20-21,299650.0,900.0,900.0,900.0,700.0,550.0,50.0,300.0,300.0,250.0,50.0,FY21-22,144800.0,450.0,500.0,350.0,300.0,200.0,50.0,200.0,100.0,150.0,50.0,FY22-23,415200,1300,1450,700,1000,750,100,550,400,350,100
175,Bell,Mernda line,Darebin C  ,1,20013.0,-37.74556212,145.000155,8.59852051053655,1791200.0,2150.0,1550.0,5900.0,6450.0,2250.0,38.19928423431908,50.0,100.0,325.0,FY18-19,530900.0,1700.0,1800.0,1500.0,1050.0,750.0,150.0,700.0,400.0,450.0,100.0,FY19-20,648650.0,2050.0,2150.0,1850.0,1400.0,900.0,150.0,750.0,600.0,550.0,100.0,FY20-21,170000.0,550.0,550.0,550.0,350.0,200.0,50.0,150.0,150.0,200.0,50.0,FY21-22,238850.0,750.0,750.0,650.0,600.0,400.0,50.0,200.0,200.0,250.0,50.0,FY22-23,202800,650,650,600,450,350,50,350,100,100,50
188,Broadmeadows,Craigieburn line,Hume C  ,2,20030.0,-37.68304926,144.9196132,15.605318821251968,1774750.0,1700.0,1550.0,5450.0,7950.0,2700.0,65.66843237006346,93.75,100.0,164.70588235294116,FY18-19,953350.0,3100.0,3150.0,2800.0,1800.0,1450.0,250.0,800.0,950.0,1000.0,200.0,FY19-20,154650.0,100.0,150.0,50.0,1700.0,150.0,50.0,50.0,50.0,50.0,50.0,FY20-21,4150.0,50.0,50.0,50.0,50.0,50.0,50.0,50.0,50.0,50.0,50.0,FY21-22,36550.0,50.0,50.0,50.0,400.0,150.0,50.0,50.0,50.0,50.0,50.0,FY22-23,626050,2000,2050,1900,1250,950,250,750,500,400,100
12,Holmesglen,Glen Waverley line,Stonnington C  ,1&2,19839.0,-37.87440222,145.090662,12.52514230808856,1746050.0,2250.0,1400.0,5700.0,6100.0,2100.0,69.96988518727649,60.0,100.0,162.5,FY18-19,531300.0,1800.0,1800.0,1700.0,850.0,600.0,100.0,750.0,450.0,400.0,100.0,FY19-20,439050.0,1450.0,1450.0,1450.0,800.0,600.0,100.0,600.0,350.0,350.0,50.0,FY20-21,187800.0,550.0,600.0,500.0,450.0,300.0,50.0,200.0,200.0,150.0,50.0,FY21-22,216150.0,650.0,700.0,550.0,550.0,400.0,50.0,250.0,150.0,200.0,50.0,FY22-23,371750,1150,1150,1100,850,700,50,450,300,300,50
117,Brighton Beach,Sandringham line,Bayside C  ,1&2,19950.0,-37.92648432,144.9891536,12.185634694783277,1744600.0,2350.0,1100.0,5150.0,7200.0,1700.0,86.38293118856122,66.66666666666666,100.0,133.33333333333331,FY18-19,447600.0,1400.0,1300.0,1700.0,900.0,850.0,100.0,600.0,250.0,300.0,50.0,FY19-20,501150.0,1650.0,1650.0,1650.0,950.0,650.0,150.0,850.0,300.0,250.0,50.0,FY20-21,140150.0,400.0,400.0,400.0,400.0,300.0,50.0,150.0,100.0,100.0,50.0,FY21-22,269050.0,800.0,850.0,750.0,700.0,500.0,50.0,350.0,200.0,200.0,50.0,FY22-23,386650,1100,950,1600,1100,850,50,400,200,250,50
191,Oak Park,Craigieburn line,Merry-bek C,1&2,20033.0,-37.71794973,144.9215188,11.852447403975583,1735800.0,2550.0,950.0,5650.0,6250.0,2200.0,43.663366336633665,40.909090909090914,100.0,240.0,FY18-19,555500.0,1850.0,1900.0,1700.0,950.0,700.0,200.0,1100.0,350.0,200.0,50.0,FY19-20,221650.0,700.0,700.0,650.0,450.0,400.0,100.0,350.0,200.0,100.0,50.0,FY20-21,399100.0,1200.0,1300.0,850.0,900.0,700.0,150.0,400.0,400.0,300.0,50.0,FY21-22,317000.0,950.0,900.0,1100.0,750.0,600.0,100.0,250.0,250.0,200.0,50.0,FY22-23,242550,800,850,650,450,350,50,450,150,150,50
113,Toorak,Dandenong line,Stonnington C  ,1,19946.0,-37.85077381,145.0139086,5.480047748634101,1699800.0,2450.0,1950.0,6350.0,5200.0,1900.0,63.91882707058938,52.94117647058824,100.0,157.14285714285714,FY18-19,514950.0,1750.0,1950.0,950.0,900.0,600.0,50.0,850.0,400.0,500.0,100.0,FY19-20,414400.0,1350.0,1600.0,650.0,750.0,500.0,50.0,700.0,350.0,450.0,50.0,FY20-21,196650.0,650.0,700.0,500.0,350.0,250.0,50.0,200.0,150.0,250.0,50.0,FY21-22,244650.0,800.0,850.0,600.0,500.0,350.0,50.0,250.0,200.0,300.0,50.0,FY22-23,329150,1100,1250,550,600,400,50,450,250,450,50
49,Pakenham,Dandenong line,Cardinia S  ,2,19880.0,-38.08061397,145.4863791,54.08300610192539,1685650.0,1950.0,1000.0,5800.0,5600.0,2800.0,81.34900357690343,66.66666666666666,100.0,133.33333333333331,FY18-19,489250.0,1600.0,1750.0,1200.0,850.0,600.0,400.0,600.0,350.0,250.0,50.0,FY19-20,465800.0,1500.0,1650.0,1050.0,900.0,650.0,350.0,600.0,350.0,250.0,50.0,FY20-21,62250.0,200.0,250.0,200.0,50.0,50.0,50.0,100.0,50.0,50.0,50.0,FY21-22,270350.0,850.0,900.0,700.0,550.0,400.0,200.0,250.0,250.0,200.0,50.0,FY22-23,398000,1250,1250,1150,850,700,250,400,300,250,50
105,Patterson,Frankston line,Glen Eira C  ,2,19938.0,-37.92514919,145.03547,13.315576651727817,1676800.0,2250.0,1550.0,5800.0,6400.0,2050.0,56.97953422724065,50.0,100.0,160.0,FY18-19,354250.0,1200.0,1350.0,750.0,550.0,400.0,100.0,700.0,250.0,250.0,50.0,FY19-20,671250.0,2050.0,2250.0,1450.0,1600.0,1250.0,150.0,800.0,550.0,600.0,150.0,FY20-21,127150.0,400.0,450.0,300.0,250.0,150.0,50.0,150.0,100.0,150.0,50.0,FY21-22,322300.0,950.0,1000.0,800.0,850.0,650.0,50.0,250.0,250.0,350.0,50.0,FY22-23,201850,650,750,300,400,300,50,350,150,200,50
101,Eaglemont,Hurstbridge line,Banyule C  ,1&2,19934.0,-37.76358553,145.0539427,9.76916370511624,1676700.0,2900.0,1350.0,5900.0,5250.0,1700.0,326.93009118541033,257.14285714285717,100.0,44.44444444444444,FY18-19,164500.0,550.0,600.0,500.0,250.0,150.0,50.0,350.0,100.0,50.0,50.0,FY19-20,604100.0,2050.0,2150.0,1650.0,1050.0,700.0,200.0,1100.0,350.0,450.0,50.0,FY20-21,50550.0,150.0,150.0,150.0,100.0,100.0,50.0,100.0,50.0,50.0,50.0,FY21-22,319750.0,1050.0,1100.0,800.0,650.0,450.0,50.0,450.0,200.0,300.0,50.0,FY22-23,537800,1750,1900,1250,1000,800,100,900,300,500,50
132,Coburg,Upfield line,Merry-bek C,1,19965.0,-37.74234502,144.9633363,8.452394820337206,1672750.0,2350.0,1050.0,5400.0,5950.0,2100.0,54.84557309540151,45.45454545454545,100.0,211.11111111111111,FY18-19,728500.0,2350.0,2400.0,2150.0,1450.0,1050.0,250.0,1100.0,600.0,400.0,100.0,FY19-20,257000.0,850.0,900.0,750.0,450.0,350.0,100.0,450.0,150.0,150.0,50.0,FY20-21,145500.0,450.0,400.0,600.0,350.0,200.0,50.0,150.0,100.0,100.0,50.0,FY21-22,142200.0,450.0,450.0,400.0,300.0,250.0,50.0,150.0,100.0,100.0,50.0,FY22-23,399550,1250,1250,1150,900,650,100,500,300,300,50
66,Laburnum,Ringwood line,Whitehorse C  ,2,19897.0,-37.82078023,145.1407027,15.26330902725479,1664750.0,2600.0,1400.0,5800.0,5050.0,1850.0,50.25319508078129,40.0,100.0,160.0,FY18-19,414700.0,1400.0,1500.0,1050.0,600.0,450.0,100.0,750.0,250.0,350.0,50.0,FY19-20,340950.0,1150.0,1200.0,850.0,600.0,400.0,100.0,600.0,250.0,250.0,50.0,FY20-21,533050.0,1700.0,1800.0,1500.0,1000.0,700.0,100.0,700.0,400.0,450.0,50.0,FY21-22,167650.0,550.0,600.0,400.0,350.0,250.0,50.0,250.0,150.0,150.0,50.0,FY22-23,208400,700,700,550,400,300,50,300,150,200,50
39,Bayswater,Ringwood line,Knox C  ,2,19870.0,-37.84173004,145.2681364,26.578523215194856,1644850.0,2700.0,1000.0,5700.0,4550.0,2100.0,61.258247374779295,52.63157894736842,100.0,162.5,FY18-19,538050.0,1850.0,1900.0,1650.0,800.0,550.0,300.0,950.0,300.0,300.0,50.0,FY19-20,417400.0,1400.0,1450.0,1250.0,650.0,400.0,250.0,750.0,250.0,200.0,50.0,FY20-21,96050.0,300.0,350.0,250.0,150.0,100.0,50.0,150.0,50.0,100.0,50.0,FY21-22,263750.0,850.0,900.0,750.0,500.0,350.0,100.0,350.0,200.0,200.0,50.0,FY22-23,329600,1100,1100,1050,600,450,100,500,250,200,50
114,Hawksburn,Dandenong line,Stonnington C  ,1,19947.0,-37.84459087,145.0021421,4.2529624726859385,1644800.0,2450.0,1550.0,5850.0,5600.0,1900.0,67.08037825059102,58.82352941176471,100.0,171.42857142857142,FY18-19,507600.0,1650.0,1800.0,1050.0,1050.0,750.0,100.0,850.0,400.0,350.0,100.0,FY19-20,370450.0,1250.0,1450.0,500.0,650.0,450.0,50.0,650.0,300.0,400.0,50.0,FY20-21,201400.0,600.0,600.0,600.0,450.0,300.0,50.0,200.0,150.0,200.0,50.0,FY21-22,224850.0,750.0,800.0,500.0,450.0,300.0,50.0,250.0,200.0,300.0,50.0,FY22-23,340500,1100,1200,650,700,500,50,500,250,300,50
13,Jordanville,Glen Waverley line,Monash C  ,2,19840.0,-37.87360339,145.1120902,14.148952431916026,1612650.0,3050.0,700.0,5450.0,4950.0,1750.0,72.75734188633858,70.0,100.0,142.85714285714286,FY18-19,498850.0,1700.0,1750.0,1650.0,700.0,550.0,150.0,1000.0,300.0,200.0,50.0,FY19-20,402000.0,1350.0,1350.0,1350.0,650.0,450.0,150.0,800.0,250.0,150.0,50.0,FY20-21,157850.0,500.0,500.0,450.0,350.0,250.0,50.0,250.0,100.0,100.0,50.0,FY21-22,191000.0,600.0,650.0,500.0,400.0,300.0,50.0,300.0,150.0,100.0,50.0,FY22-23,362950,1150,1200,1050,700,600,100,700,200,150,50
176,Thornbury,Mernda line,Darebin C  ,1,20014.0,-37.75505179,144.9985715,7.56202338177191,1598350.0,2400.0,1200.0,5300.0,5550.0,1800.0,40.39338173223029,27.27272727272727,100.0,240.0,FY18-19,592300.0,1950.0,2000.0,1900.0,1100.0,750.0,150.0,1100.0,350.0,300.0,100.0,FY19-20,444100.0,1400.0,1450.0,1200.0,1000.0,750.0,100.0,600.0,300.0,350.0,100.0,FY20-21,190250.0,600.0,600.0,600.0,400.0,250.0,50.0,250.0,150.0,150.0,50.0,FY21-22,132450.0,450.0,450.0,400.0,250.0,200.0,50.0,150.0,100.0,150.0,50.0,FY22-23,239250,750,800,650,500,350,50,300,150,250,50
60,Sandown Park,Dandenong line,Greater Dandenong C  ,2,19891.0,-37.95650457,145.1628259,23.056078100547126,1587600.0,3350.0,700.0,5900.0,3950.0,2050.0,58.773725344250096,52.0,100.0,162.5,FY18-19,537400.0,1900.0,2000.0,1500.0,600.0,450.0,250.0,1250.0,350.0,150.0,50.0,FY19-20,443950.0,1550.0,1700.0,1000.0,600.0,450.0,200.0,1050.0,300.0,150.0,50.0,FY20-21,100800.0,350.0,400.0,200.0,150.0,100.0,50.0,100.0,100.0,200.0,50.0,FY21-22,189600.0,600.0,650.0,450.0,350.0,300.0,50.0,300.0,150.0,100.0,50.0,FY22-23,315850,1050,1150,700,550,400,100,650,250,100,50
98,Alphington,Hurstbridge line,Darebin C  ,1,19931.0,-37.77839363,145.0312549,7.183601931033017,1584350.0,2650.0,1050.0,5350.0,5450.0,1750.0,136.93162681037387,108.33333333333333,100.0,85.71428571428571,FY18-19,296900.0,1050.0,1100.0,800.0,400.0,300.0,50.0,600.0,200.0,200.0,50.0,FY19-20,509000.0,1650.0,1700.0,1450.0,1000.0,700.0,150.0,900.0,350.0,250.0,100.0,FY20-21,109600.0,350.0,350.0,300.0,200.0,150.0,50.0,150.0,100.0,100.0,50.0,FY21-22,262300.0,800.0,850.0,650.0,600.0,450.0,50.0,350.0,200.0,200.0,50.0,FY22-23,406550,1250,1350,950,900,750,50,650,250,300,50
189,Jacana,Craigieburn line,Hume C  ,2,20031.0,-37.69513079,144.9158505,14.414655961992212,1581400.0,1650.0,1250.0,4850.0,6400.0,2100.0,162.2795414462081,185.71428571428572,100.0,87.5,FY18-19,226800.0,700.0,750.0,650.0,450.0,400.0,100.0,350.0,200.0,100.0,50.0,FY19-20,143150.0,300.0,100.0,950.0,500.0,650.0,50.0,50.0,50.0,50.0,50.0,FY20-21,395750.0,1250.0,1350.0,900.0,800.0,600.0,100.0,300.0,400.0,450.0,100.0,FY21-22,447650.0,1400.0,1450.0,1300.0,950.0,700.0,100.0,300.0,400.0,500.0,100.0,FY22-23,368050,1150,1200,1100,750,600,100,650,250,150,50
37,Ferntree Gully,Ringwood line,Knox C  ,2,19868.0,-37.88169799,145.2952513,29.673543442420318,1545850.0,2800.0,650.0,5400.0,4150.0,2100.0,50.18833350300316,40.0,100.0,216.66666666666666,FY18-19,491150.0,1700.0,1750.0,1550.0,650.0,450.0,350.0,1000.0,250.0,150.0,50.0,FY19-20,375900.0,1300.0,1350.0,1150.0,550.0,350.0,250.0,750.0,200.0,150.0,50.0,FY20-21,243500.0,800.0,800.0,750.0,450.0,350.0,100.0,350.0,200.0,150.0,50.0,FY21-22,188800.0,600.0,650.0,550.0,350.0,250.0,100.0,300.0,150.0,100.0,50.0,FY22-23,246500,800,850,800,450,300,100,400,150,100,50
97,Fairfield,Hurstbridge line,Darebin C  ,1,19930.0,-37.77917126,145.0169053,6.179771140248319,1519650.0,2850.0,900.0,5300.0,4800.0,1700.0,36.31420920230463,39.130434782608695,100.0,260.0,FY18-19,616150.0,2050.0,2150.0,1800.0,1050.0,750.0,150.0,1150.0,400.0,350.0,100.0,FY19-20,305550.0,1050.0,1100.0,850.0,500.0,350.0,50.0,700.0,200.0,150.0,50.0,FY20-21,233400.0,700.0,750.0,700.0,500.0,400.0,50.0,300.0,200.0,150.0,50.0,FY21-22,140800.0,450.0,500.0,350.0,300.0,200.0,50.0,250.0,100.0,100.0,50.0,FY22-23,223750,750,800,550,450,300,50,450,150,150,50
11,East Malvern,Glen Waverley line,Stonnington C  ,1&2,19838.0,-37.87693002,145.069393,11.107716266358675,1505950.0,2800.0,650.0,4600.0,5000.0,1400.0,66.52810973708823,47.61904761904761,100.0,160.0,FY18-19,481150.0,1700.0,1600.0,2050.0,600.0,400.0,100.0,1050.0,250.0,150.0,50.0,FY19-20,400500.0,1350.0,1200.0,1800.0,650.0,450.0,100.0,800.0,200.0,150.0,50.0,FY20-21,127600.0,400.0,400.0,350.0,300.0,200.0,50.0,200.0,100.0,100.0,50.0,FY21-22,176600.0,500.0,500.0,450.0,500.0,400.0,50.0,250.0,100.0,100.0,50.0,FY22-23,320100,950,900,1150,800,700,50,500,150,150,50
29,Chelsea,Frankston line,Kingston C  ,2,19860.0,-38.05195538,145.1160413,29.084859715089227,1505600.0,2200.0,700.0,4950.0,5500.0,2050.0,64.80761358984854,56.25,100.0,162.5,FY18-19,488600.0,1600.0,1650.0,1300.0,950.0,700.0,250.0,800.0,350.0,200.0,50.0,FY19-20,352400.0,1150.0,1200.0,950.0,700.0,450.0,200.0,550.0,250.0,150.0,50.0,FY20-21,186300.0,550.0,550.0,550.0,450.0,300.0,50.0,200.0,150.0,100.0,50.0,FY21-22,161650.0,500.0,500.0,500.0,400.0,250.0,50.0,200.0,150.0,100.0,50.0,FY22-23,316650,950,1050,800,750,550,100,450,250,150,50
149,Eltham,Hurstbridge line,Banyule C  ,2,19987.0,-37.71354967,145.147822,19.70835187083376,1484500.0,2600.0,900.0,5250.0,4250.0,1950.0,53.78279697715887,52.38095238095239,100.0,187.5,FY18-19,588850.0,2050.0,2150.0,1650.0,850.0,600.0,400.0,1050.0,300.0,350.0,50.0,FY19-20,254100.0,850.0,900.0,700.0,400.0,250.0,150.0,550.0,100.0,100.0,50.0,FY20-21,206900.0,650.0,700.0,550.0,400.0,250.0,100.0,250.0,150.0,200.0,50.0,FY21-22,117950.0,400.0,400.0,300.0,250.0,150.0,50.0,200.0,100.0,50.0,50.0,FY22-23,316700,1050,1100,700,600,500,150,550,200,200,50
48,Ringwood East,Ringwood line,Maroondah C  ,2,19879.0,-37.81196804,145.2501909,24.889504017725706,1450200.0,2650.0,800.0,5200.0,3450.0,1950.0,44.91037479630636,35.0,100.0,183.33333333333331,FY18-19,460250.0,1650.0,1700.0,1350.0,500.0,350.0,250.0,1000.0,250.0,200.0,50.0,FY19-20,369900.0,1300.0,1400.0,1050.0,450.0,300.0,200.0,800.0,200.0,200.0,50.0,FY20-21,280300.0,900.0,900.0,900.0,550.0,400.0,200.0,300.0,200.0,150.0,50.0,FY21-22,133050.0,450.0,450.0,350.0,200.0,150.0,50.0,200.0,100.0,100.0,50.0,FY22-23,206700,700,750,600,300,250,100,350,150,150,50
58,Yarraman,Dandenong line,Greater Dandenong C  ,2,19889.0,-37.97825454,145.1916003,26.548622924260254,1449400.0,1900.0,950.0,5050.0,4450.0,2250.0,69.64078794901506,60.0,100.0,128.57142857142858,FY18-19,302050.0,1050.0,1100.0,900.0,450.0,300.0,150.0,500.0,250.0,150.0,50.0,FY19-20,283350.0,950.0,1000.0,700.0,450.0,350.0,150.0,450.0,250.0,150.0,50.0,FY20-21,513650.0,1650.0,1700.0,1500.0,950.0,800.0,200.0,500.0,450.0,400.0,100.0,FY21-22,140000.0,450.0,500.0,350.0,250.0,200.0,50.0,150.0,150.0,100.0,50.0,FY22-23,210350,700,750,500,400,300,100,300,200,150,50
184,Middle Footscray,Sunbury line,Maribyrnong C  ,1,20024.0,-37.8025047,144.8914721,6.860679934212166,1444550.0,2500.0,900.0,4900.0,4550.0,1650.0,101.30496961029674,80.0,100.0,100.0,FY18-19,279700.0,950.0,950.0,850.0,500.0,350.0,50.0,500.0,200.0,150.0,50.0,FY19-20,515950.0,1700.0,1800.0,1400.0,900.0,600.0,150.0,1000.0,350.0,250.0,50.0,FY20-21,81800.0,250.0,250.0,250.0,200.0,150.0,50.0,100.0,50.0,50.0,50.0,FY21-22,283750.0,950.0,950.0,800.0,500.0,350.0,100.0,500.0,200.0,200.0,50.0,FY22-23,283350,900,950,750,550,450,50,400,200,250,50
134,Anstey,Upfield line,Merry-bek C,1,19967.0,-37.76124203,144.960684,6.369081663551431,1430500.0,2050.0,950.0,4600.0,5400.0,1550.0,56.16730687153222,50.0,100.0,180.0,FY18-19,468600.0,1500.0,1500.0,1400.0,1000.0,700.0,100.0,800.0,300.0,250.0,50.0,FY19-20,272400.0,900.0,900.0,800.0,500.0,350.0,50.0,400.0,200.0,200.0,50.0,FY20-21,159900.0,500.0,500.0,500.0,400.0,250.0,50.0,200.0,150.0,100.0,50.0,FY21-22,266400.0,800.0,850.0,650.0,700.0,450.0,50.0,250.0,200.0,250.0,50.0,FY22-23,263200,800,850,750,600,450,50,400,150,150,50
148,Montmorency,Hurstbridge line,Banyule C  ,2,19986.0,-37.71529624,145.1215157,17.7694253012578,1427400.0,2450.0,750.0,4900.0,4600.0,1850.0,45.75771676748875,42.857142857142854,100.0,200.0,FY18-19,322350.0,1100.0,1200.0,900.0,450.0,300.0,200.0,700.0,150.0,150.0,50.0,FY19-20,588050.0,1900.0,2000.0,1650.0,1200.0,800.0,350.0,950.0,350.0,300.0,50.0,FY20-21,103450.0,350.0,350.0,300.0,200.0,150.0,50.0,150.0,50.0,50.0,50.0,FY21-22,266050.0,850.0,850.0,700.0,600.0,400.0,100.0,350.0,200.0,200.0,50.0,FY22-23,147500,500,500,350,300,200,50,300,100,50,50
102,Heidelberg,Hurstbridge line,Banyule C  ,1&2,19935.0,-37.75707293,145.0606855,10.685852181112447,1421400.0,1700.0,1800.0,5100.0,3950.0,1800.0,12.550530570995452,22.22222222222222,100.0,633.3333333333333,FY18-19,791600.0,2750.0,2900.0,2200.0,1050.0,800.0,200.0,900.0,600.0,1100.0,150.0,FY19-20,128000.0,450.0,450.0,350.0,250.0,150.0,50.0,250.0,100.0,50.0,50.0,FY20-21,343900.0,1150.0,1200.0,950.0,600.0,450.0,50.0,250.0,250.0,550.0,50.0,FY21-22,58550.0,200.0,200.0,150.0,150.0,100.0,50.0,100.0,50.0,50.0,50.0,FY22-23,99350,300,350,250,200,200,50,200,50,50,50
161,Diggers Rest,Sunbury line,Hume C  ,2,15353.0,-37.62701651,144.7199224,30.406183696162337,1401850.0,2050.0,650.0,4750.0,4300.0,2250.0,58.644067796610166,45.45454545454545,100.0,150.0,FY18-19,221250.0,800.0,850.0,700.0,200.0,150.0,150.0,550.0,100.0,50.0,50.0,FY19-20,628800.0,2050.0,2100.0,1750.0,1350.0,800.0,550.0,750.0,400.0,300.0,100.0,FY20-21,59350.0,200.0,200.0,200.0,100.0,50.0,50.0,100.0,50.0,50.0,50.0,FY21-22,362700.0,1150.0,1150.0,1000.0,750.0,550.0,250.0,400.0,250.0,200.0,50.0,FY22-23,129750,450,450,400,200,150,100,250,50,50,50
177,Croxton,Mernda line,Darebin C  ,1,20015.0,-37.764101,144.9970562,6.581744653128684,1342700.0,2300.0,700.0,4400.0,5050.0,1550.0,33.992704826038164,21.428571428571427,100.0,175.0,FY18-19,356400.0,1150.0,1200.0,1050.0,700.0,450.0,100.0,700.0,200.0,150.0,50.0,FY19-20,544200.0,1700.0,1800.0,1250.0,1350.0,900.0,150.0,1000.0,350.0,250.0,50.0,FY20-21,115250.0,350.0,350.0,350.0,250.0,200.0,50.0,150.0,100.0,50.0,50.0,FY21-22,205700.0,650.0,650.0,550.0,450.0,300.0,50.0,300.0,150.0,150.0,50.0,FY22-23,121150,400,400,350,250,200,50,150,100,100,50
135,Brunswick,Upfield line,Merry-bek C,1,19968.0,-37.76772055,144.9595865,5.661984584482287,1329950.0,1650.0,1200.0,4300.0,5100.0,1600.0,59.43074003795067,40.0,100.0,180.0,FY18-19,395250.0,1250.0,1250.0,1150.0,900.0,650.0,50.0,500.0,300.0,350.0,100.0,FY19-20,357050.0,1150.0,1200.0,1050.0,700.0,500.0,100.0,600.0,250.0,200.0,50.0,FY20-21,155350.0,500.0,500.0,500.0,350.0,250.0,50.0,100.0,150.0,200.0,50.0,FY21-22,187400.0,550.0,600.0,500.0,500.0,300.0,50.0,250.0,150.0,150.0,50.0,FY22-23,234900,700,750,650,550,400,50,200,150,300,50
100,Ivanhoe,Hurstbridge line,Banyule C  ,1&2,19933.0,-37.76889674,145.0454252,8.815585363316472,1328950.0,2200.0,1200.0,4800.0,3650.0,1600.0,12.234314980793853,10.344827586206897,100.0,533.3333333333333,FY18-19,781000.0,2700.0,2850.0,2200.0,1150.0,750.0,250.0,1450.0,450.0,600.0,100.0,FY19-20,118850.0,400.0,450.0,300.0,200.0,150.0,50.0,200.0,100.0,100.0,50.0,FY20-21,273050.0,900.0,950.0,750.0,500.0,350.0,50.0,350.0,200.0,300.0,50.0,FY21-22,60500.0,200.0,200.0,100.0,100.0,100.0,50.0,50.0,50.0,100.0,50.0,FY22-23,95550,300,350,200,200,150,50,150,50,100,50
33,Parkdale,Frankston line,Kingston C  ,2,19864.0,-37.99307882,145.0763268,21.6735169190248,1301700.0,1900.0,1050.0,4600.0,4350.0,1650.0,53.95457192778102,40.0,100.0,166.66666666666669,FY18-19,429250.0,1450.0,1550.0,1050.0,800.0,550.0,150.0,750.0,300.0,300.0,50.0,FY19-20,299300.0,1000.0,1100.0,700.0,550.0,350.0,100.0,500.0,200.0,200.0,50.0,FY20-21,161900.0,500.0,500.0,400.0,400.0,250.0,50.0,150.0,150.0,150.0,50.0,FY21-22,179650.0,550.0,600.0,500.0,400.0,250.0,50.0,200.0,150.0,150.0,50.0,FY22-23,231600,750,850,350,500,300,50,300,200,250,50
171,Ruthven,Mernda line,Darebin C  ,2,20009.0,-37.70789754,145.0095166,12.833968186552376,1297050.0,1950.0,800.0,4300.0,4200.0,1750.0,57.91208791208792,50.0,100.0,166.66666666666669,FY18-19,409500.0,1350.0,1400.0,1200.0,700.0,500.0,200.0,800.0,250.0,150.0,50.0,FY19-20,313250.0,1000.0,1050.0,950.0,600.0,400.0,150.0,350.0,250.0,250.0,50.0,FY20-21,162400.0,500.0,500.0,500.0,350.0,250.0,100.0,250.0,100.0,100.0,50.0,FY21-22,174750.0,600.0,600.0,500.0,300.0,200.0,50.0,150.0,150.0,200.0,50.0,FY22-23,237150,750,750,700,500,400,100,400,150,100,50
26,Seaford,Frankston line,Frankston C  ,2,19857.0,-38.10402104,145.1282304,34.773937948051675,1287300.0,1700.0,500.0,4250.0,4400.0,2100.0,74.56902311906988,63.63636363636363,100.0,162.5,FY18-19,374150.0,1250.0,1300.0,1000.0,650.0,450.0,400.0,550.0,200.0,150.0,50.0,FY19-20,317100.0,1050.0,1100.0,850.0,600.0,400.0,300.0,450.0,200.0,100.0,50.0,FY20-21,154500.0,450.0,450.0,500.0,350.0,250.0,100.0,150.0,100.0,50.0,50.0,FY21-22,162550.0,500.0,500.0,500.0,350.0,250.0,100.0,200.0,100.0,50.0,50.0,FY22-23,279000,850,900,700,650,450,150,350,200,150,50
136,Jewell,Upfield line,Merry-bek C,1,19969.0,-37.77498702,144.9587169,4.870959984872422,1283550.0,1300.0,1400.0,4100.0,4850.0,1600.0,59.95507212106881,55.55555555555556,100.0,166.66666666666669,FY18-19,422900.0,1350.0,1400.0,1200.0,850.0,700.0,50.0,450.0,350.0,450.0,100.0,FY19-20,304300.0,950.0,1000.0,850.0,650.0,450.0,50.0,350.0,250.0,300.0,100.0,FY20-21,135400.0,400.0,400.0,400.0,300.0,200.0,50.0,100.0,100.0,150.0,50.0,FY21-22,167400.0,500.0,500.0,450.0,450.0,300.0,50.0,150.0,100.0,200.0,50.0,FY22-23,253550,800,800,700,550,400,50,250,200,300,50
137,Royal Park,Upfield line,Melbourne C  ,1,19970.0,-37.78119293,144.9523013,4.3231132865404,1210450.0,850.0,1450.0,3700.0,4700.0,1550.0,67.69360033608737,50.0,100.0,133.33333333333331,FY18-19,357050.0,1100.0,1050.0,1200.0,800.0,650.0,50.0,200.0,300.0,450.0,50.0,FY19-20,315750.0,1000.0,1050.0,850.0,600.0,450.0,50.0,350.0,250.0,350.0,100.0,FY20-21,117850.0,350.0,350.0,500.0,250.0,200.0,50.0,50.0,100.0,150.0,50.0,FY21-22,178100.0,550.0,550.0,450.0,450.0,300.0,50.0,150.0,150.0,200.0,50.0,FY22-23,241700,750,700,900,500,500,50,100,200,300,50
51,Beaconsfield,Dandenong line,Cardinia S  ,2,19882.0,-38.05083135,145.3660737,43.51632781845053,1197500.0,1850.0,900.0,4600.0,2200.0,2000.0,76.60508505578927,70.0,100.0,128.57142857142858,FY18-19,273350.0,1000.0,1100.0,600.0,200.0,150.0,300.0,500.0,100.0,200.0,50.0,FY19-20,234200.0,850.0,950.0,450.0,200.0,150.0,250.0,400.0,100.0,150.0,50.0,FY20-21,361200.0,1250.0,1300.0,1000.0,500.0,350.0,200.0,400.0,300.0,300.0,50.0,FY21-22,119350.0,400.0,450.0,250.0,150.0,100.0,100.0,200.0,100.0,100.0,50.0,FY22-23,209400,750,800,550,250,150,200,350,100,150,50
14,Belgrave,Ringwood line,Yarra Ranges S  ,2,19844.0,-37.9091021,145.3552913,35.5530607737199,1180100.0,1250.0,950.0,3750.0,4600.0,1600.0,50.699166132135986,33.33333333333333,100.0,220.00000000000003,FY18-19,389750.0,1250.0,1250.0,1200.0,800.0,600.0,250.0,450.0,250.0,300.0,50.0,FY19-20,296550.0,950.0,950.0,900.0,650.0,450.0,150.0,350.0,200.0,200.0,50.0,FY20-21,143400.0,450.0,450.0,400.0,350.0,250.0,50.0,150.0,100.0,100.0,50.0,FY21-22,152800.0,450.0,500.0,400.0,350.0,250.0,50.0,150.0,100.0,150.0,50.0,FY22-23,197600,600,600,600,500,400,50,150,150,200,50
78,Kooyong,Glen Waverley line,Stonnington C  ,1,19910.0,-37.83992894,145.0335516,6.323139963375088,1154850.0,1300.0,1450.0,4050.0,3150.0,1500.0,69.0645395213923,62.5,100.0,133.33333333333331,FY18-19,344750.0,1250.0,1250.0,1150.0,400.0,300.0,50.0,400.0,300.0,450.0,50.0,FY19-20,263150.0,900.0,950.0,850.0,350.0,250.0,50.0,300.0,250.0,300.0,50.0,FY20-21,176050.0,550.0,600.0,500.0,350.0,250.0,50.0,200.0,150.0,200.0,50.0,FY21-22,132800.0,400.0,450.0,300.0,250.0,200.0,50.0,150.0,100.0,200.0,50.0,FY22-23,238100,750,800,650,450,350,50,250,200,300,50
10,Darling,Glen Waverley line,Stonnington C  ,1&2,19837.0,-37.86895684,145.0629508,10.137137203671587,1130500.0,2200.0,550.0,3750.0,4000.0,1200.0,68.04594519789649,60.0,100.0,120.0,FY18-19,361300.0,1200.0,1250.0,1150.0,550.0,550.0,50.0,750.0,200.0,150.0,50.0,FY19-20,267750.0,900.0,900.0,900.0,450.0,300.0,50.0,550.0,150.0,100.0,50.0,FY20-21,120400.0,350.0,350.0,250.0,400.0,250.0,50.0,200.0,100.0,50.0,50.0,FY21-22,135200.0,400.0,450.0,350.0,300.0,200.0,50.0,250.0,100.0,100.0,50.0,FY22-23,245850,750,800,700,550,450,50,450,150,150,50
128,Gowrie,Upfield line,Merry-bek C,2,19961.0,-37.700678,144.9588743,13.09886084439493,1105150.0,1350.0,800.0,3700.0,3800.0,1550.0,62.63616557734205,60.0,100.0,180.0,FY18-19,321300.0,1050.0,1050.0,950.0,650.0,500.0,150.0,500.0,250.0,150.0,50.0,FY19-20,284700.0,950.0,1000.0,850.0,500.0,350.0,100.0,300.0,250.0,300.0,50.0,FY20-21,112050.0,350.0,350.0,400.0,250.0,150.0,50.0,100.0,100.0,50.0,50.0,FY21-22,185850.0,600.0,650.0,500.0,350.0,250.0,50.0,150.0,150.0,200.0,50.0,FY22-23,201250,650,650,550,450,350,50,300,150,100,50
8,Glen Iris,Glen Waverley line,Stonnington C  ,1,19835.0,-37.85930842,145.0582249,9.220238223342516,1097600.0,1750.0,1150.0,3900.0,3200.0,1200.0,75.08330808845804,58.333333333333336,100.0,120.0,FY18-19,330100.0,1150.0,1250.0,900.0,450.0,300.0,50.0,600.0,200.0,350.0,50.0,FY19-20,253400.0,850.0,900.0,700.0,400.0,250.0,50.0,450.0,150.0,250.0,50.0,FY20-21,118200.0,400.0,400.0,300.0,250.0,150.0,50.0,150.0,100.0,150.0,50.0,FY21-22,148050.0,450.0,500.0,350.0,300.0,200.0,50.0,200.0,100.0,150.0,50.0,FY22-23,247850,800,850,600,500,400,50,350,150,250,50
27,Carrum,Frankston line,Kingston C  ,2,19858.0,-38.07489292,145.1224183,31.62028242452644,1093900.0,1600.0,550.0,3550.0,4200.0,1650.0,65.47397769516728,57.14285714285714,100.0,150.0,FY18-19,430400.0,1400.0,1450.0,1100.0,900.0,650.0,250.0,700.0,300.0,200.0,50.0,FY19-20,41600.0,150.0,150.0,100.0,100.0,50.0,50.0,50.0,50.0,50.0,50.0,FY20-21,157950.0,500.0,500.0,450.0,400.0,250.0,50.0,200.0,100.0,50.0,50.0,FY21-22,182150.0,550.0,550.0,500.0,400.0,300.0,100.0,250.0,150.0,100.0,50.0,FY22-23,281800,850,900,700,650,500,150,400,200,150,50
131,Batman,Upfield line,Merry-bek C,1&2,19964.0,-37.73352285,144.9628406,9.434323603398736,1087750.0,1750.0,650.0,3550.0,3700.0,1400.0,55.509107196177965,45.45454545454545,100.0,140.0,FY18-19,334900.0,1100.0,1100.0,1000.0,650.0,500.0,100.0,550.0,200.0,200.0,50.0,FY19-20,296300.0,1000.0,1000.0,900.0,500.0,350.0,150.0,550.0,200.0,100.0,50.0,FY20-21,116250.0,350.0,350.0,400.0,250.0,150.0,50.0,150.0,100.0,100.0,50.0,FY21-22,154400.0,500.0,500.0,450.0,350.0,250.0,50.0,250.0,100.0,100.0,50.0,FY22-23,185900,600,600,550,400,300,50,250,150,150,50
150,Diamond Creek,Hurstbridge line,Nillumbik S  ,2,19988.0,-37.67329744,145.1585062,23.315682700850008,1060800.0,1800.0,600.0,3750.0,3300.0,1500.0,55.966149506346966,57.14285714285714,100.0,200.0,FY18-19,177250.0,600.0,650.0,500.0,300.0,200.0,150.0,350.0,100.0,50.0,50.0,FY19-20,461400.0,1550.0,1650.0,1250.0,750.0,550.0,300.0,800.0,250.0,250.0,50.0,FY20-21,72850.0,250.0,250.0,200.0,150.0,100.0,50.0,100.0,50.0,50.0,50.0,FY21-22,250100.0,800.0,850.0,600.0,550.0,350.0,100.0,350.0,150.0,200.0,50.0,FY22-23,99200,300,350,250,200,150,50,200,50,50,50
178,Northcote,Mernda line,Darebin C  ,1,20016.0,-37.76986537,144.9952772,5.933036608110468,1056400.0,1600.0,800.0,3550.0,3650.0,1250.0,25.352464129756708,16.666666666666664,100.0,300.0,FY18-19,400750.0,1350.0,1400.0,1100.0,750.0,500.0,100.0,600.0,250.0,350.0,100.0,FY19-20,281250.0,900.0,950.0,800.0,550.0,400.0,50.0,550.0,150.0,100.0,50.0,FY20-21,151500.0,500.0,500.0,450.0,300.0,200.0,50.0,150.0,100.0,200.0,50.0,FY21-22,121300.0,350.0,400.0,350.0,300.0,200.0,50.0,200.0,100.0,50.0,50.0,FY22-23,101600,300,300,300,250,200,50,100,50,100,50
62,Canterbury,Ringwood line,Boroondara C  ,1&2,19893.0,-37.82448518,145.0812242,10.059605110783107,1045900.0,1700.0,950.0,3600.0,3100.0,1250.0,42.93340451087681,38.46153846153847,100.0,200.0,FY18-19,374650.0,1300.0,1350.0,1050.0,550.0,400.0,100.0,650.0,250.0,350.0,50.0,FY19-20,284700.0,950.0,1000.0,750.0,450.0,350.0,50.0,500.0,200.0,250.0,50.0,FY20-21,80050.0,250.0,250.0,250.0,150.0,100.0,50.0,100.0,50.0,50.0,50.0,FY21-22,145650.0,450.0,500.0,350.0,300.0,250.0,50.0,200.0,100.0,150.0,50.0,FY22-23,160850,500,500,500,300,250,50,250,100,150,50
19,Burwood,Ringwood line,Boroondara C  ,1,19849.0,-37.85156328,145.0805111,10.635310532374842,1044250.0,2350.0,550.0,3850.0,2300.0,1200.0,54.45392252831772,52.94117647058824,100.0,175.0,FY18-19,357550.0,1300.0,1350.0,1100.0,400.0,300.0,100.0,850.0,200.0,200.0,50.0,FY19-20,268750.0,950.0,1000.0,800.0,350.0,250.0,50.0,600.0,150.0,150.0,50.0,FY20-21,106400.0,350.0,350.0,300.0,150.0,100.0,50.0,200.0,100.0,50.0,50.0,FY21-22,116850.0,400.0,400.0,300.0,200.0,150.0,50.0,250.0,100.0,50.0,50.0,FY22-23,194700,700,750,500,250,150,50,450,100,100,50
96,Dennis,Hurstbridge line,Darebin C  ,1,19929.0,-37.77918729,145.0082416,5.663315982140762,1041750.0,2000.0,500.0,3550.0,3300.0,1200.0,46.744574290484145,33.33333333333333,100.0,175.0,FY18-19,389350.0,1350.0,1400.0,1150.0,550.0,400.0,100.0,900.0,200.0,150.0,50.0,FY19-20,227000.0,750.0,750.0,600.0,450.0,300.0,50.0,400.0,150.0,100.0,50.0,FY20-21,118700.0,400.0,400.0,350.0,250.0,150.0,50.0,200.0,100.0,50.0,50.0,FY21-22,124700.0,400.0,400.0,300.0,300.0,200.0,50.0,200.0,100.0,100.0,50.0,FY22-23,182000,550,600,400,400,300,50,300,100,100,50
138,Flemington Bridge,Upfield line,Moonee Valley C  ,1,19971.0,-37.78813995,144.9393233,4.141039252310161,990450.0,750.0,1150.0,3150.0,3800.0,1450.0,64.2072213500785,42.857142857142854,100.0,116.66666666666667,FY18-19,286650.0,900.0,950.0,850.0,650.0,450.0,50.0,350.0,250.0,250.0,50.0,FY19-20,269450.0,850.0,850.0,900.0,550.0,450.0,50.0,150.0,250.0,400.0,50.0,FY20-21,94250.0,300.0,300.0,300.0,200.0,150.0,50.0,50.0,100.0,100.0,50.0,FY21-22,156050.0,450.0,450.0,550.0,350.0,300.0,50.0,50.0,150.0,200.0,50.0,FY22-23,184050,600,600,500,400,300,50,150,200,200,50
93,Altona,Werribee line,Hobsons Bay C  ,1&2,19926.0,-37.8671476,144.8296447,13.22473212890279,985450.0,1250.0,950.0,3400.0,3100.0,1300.0,68.20208023774146,55.55555555555556,100.0,140.0,FY18-19,302850.0,950.0,1000.0,850.0,600.0,450.0,100.0,450.0,200.0,150.0,50.0,FY19-20,212000.0,750.0,800.0,550.0,300.0,200.0,100.0,300.0,150.0,200.0,50.0,FY20-21,126100.0,400.0,350.0,400.0,300.0,250.0,50.0,100.0,100.0,100.0,50.0,FY21-22,137950.0,450.0,500.0,300.0,250.0,150.0,50.0,150.0,100.0,200.0,50.0,FY22-23,206550,700,750,450,350,250,50,250,150,300,50
130,Merlynston,Upfield line,Merry-bek C,1&2,19963.0,-37.72093389,144.9613135,10.838574571258642,965800.0,1550.0,450.0,3250.0,3300.0,1300.0,49.45908107420135,40.0,100.0,180.0,FY18-19,392850.0,1300.0,1350.0,1150.0,700.0,550.0,150.0,750.0,250.0,150.0,50.0,FY19-20,165300.0,550.0,550.0,500.0,300.0,250.0,100.0,250.0,100.0,100.0,50.0,FY20-21,126950.0,400.0,400.0,450.0,250.0,200.0,50.0,150.0,100.0,50.0,50.0,FY21-22,86400.0,250.0,300.0,250.0,200.0,150.0,50.0,100.0,50.0,50.0,50.0,FY22-23,194300,600,650,550,400,300,50,300,150,100,50
155,North Williamstown,Werribee line,Hobsons Bay C  ,1,19993.0,-37.85733348,144.8890695,8.100920073392386,959750.0,1500.0,700.0,3350.0,2650.0,1300.0,65.3730115194734,50.0,100.0,133.33333333333331,FY18-19,364600.0,1300.0,1350.0,1100.0,500.0,300.0,100.0,700.0,250.0,250.0,50.0,FY19-20,162050.0,550.0,550.0,450.0,250.0,200.0,50.0,250.0,150.0,150.0,50.0,FY20-21,125500.0,400.0,450.0,400.0,200.0,150.0,50.0,150.0,100.0,100.0,50.0,FY21-22,69250.0,200.0,200.0,200.0,150.0,100.0,50.0,50.0,50.0,50.0,50.0,FY22-23,238350,750,800,650,450,350,50,350,200,150,50
139,Macaulay,Upfield line,Melbourne C  ,1,19972.0,-37.79426673,144.9361663,3.803363129208038,931450.0,650.0,1250.0,3150.0,3150.0,1400.0,66.24071835606976,66.66666666666666,100.0,116.66666666666667,FY18-19,289550.0,950.0,1000.0,850.0,500.0,350.0,50.0,150.0,250.0,500.0,50.0,FY19-20,225150.0,750.0,750.0,650.0,450.0,300.0,50.0,250.0,250.0,200.0,50.0,FY20-21,101750.0,350.0,350.0,300.0,200.0,150.0,50.0,50.0,100.0,150.0,50.0,FY21-22,123200.0,400.0,400.0,350.0,300.0,200.0,50.0,100.0,100.0,100.0,50.0,FY22-23,191800,600,650,550,400,300,50,100,200,300,50
40,Heathmont,Ringwood line,Maroondah C  ,2,19871.0,-37.82832227,145.2445554,24.407215470541995,924950.0,1700.0,600.0,3250.0,2600.0,1150.0,50.07301935012778,41.66666666666667,100.0,150.0,FY18-19,273900.0,950.0,1000.0,800.0,350.0,250.0,100.0,600.0,150.0,150.0,50.0,FY19-20,214600.0,750.0,800.0,600.0,300.0,200.0,100.0,450.0,100.0,100.0,50.0,FY20-21,194000.0,600.0,600.0,550.0,450.0,300.0,50.0,250.0,150.0,150.0,50.0,FY21-22,105300.0,350.0,350.0,250.0,200.0,150.0,50.0,150.0,50.0,100.0,50.0,FY22-23,137150,450,500,400,250,150,50,250,100,100,50
18,Ashburton,Ringwood line,Boroondara C  ,1,19848.0,-37.86196753,145.0813438,11.155918111021977,916450.0,1950.0,400.0,3300.0,2250.0,1200.0,56.361812405952186,50.0,100.0,150.0,FY18-19,299050.0,1050.0,1100.0,900.0,400.0,300.0,100.0,700.0,150.0,100.0,50.0,FY19-20,239200.0,850.0,850.0,700.0,300.0,200.0,100.0,550.0,150.0,100.0,50.0,FY20-21,100200.0,350.0,350.0,300.0,150.0,100.0,50.0,150.0,100.0,50.0,50.0,FY21-22,109450.0,350.0,400.0,300.0,200.0,150.0,50.0,200.0,100.0,50.0,50.0,FY22-23,168550,600,600,450,250,200,50,350,100,100,50
63,Chatham,Ringwood line,Boroondara C  ,1&2,19894.0,-37.82429952,145.0886479,10.708949470575847,889750.0,1600.0,600.0,3050.0,2550.0,1050.0,42.581692713618835,30.0,100.0,166.66666666666669,FY18-19,246350.0,850.0,900.0,700.0,350.0,250.0,50.0,500.0,150.0,150.0,50.0,FY19-20,196950.0,700.0,700.0,550.0,300.0,200.0,50.0,400.0,150.0,100.0,50.0,FY20-21,245900.0,800.0,800.0,700.0,450.0,300.0,50.0,400.0,150.0,150.0,50.0,FY21-22,95650.0,300.0,300.0,250.0,200.0,150.0,50.0,150.0,50.0,100.0,50.0,FY22-23,104900,350,350,350,200,150,50,150,50,100,50
36,Upper Ferntree Gully,Ringwood line,Knox C  ,2,19867.0,-37.8926717,145.3075302,31.022424889627512,887250.0,1400.0,400.0,2950.0,2900.0,1350.0,55.1294162100888,44.44444444444444,100.0,160.0,FY18-19,264650.0,900.0,900.0,800.0,450.0,350.0,200.0,450.0,150.0,100.0,50.0,FY19-20,210850.0,700.0,700.0,600.0,400.0,300.0,150.0,350.0,100.0,100.0,50.0,FY20-21,162600.0,550.0,550.0,450.0,300.0,200.0,100.0,250.0,100.0,100.0,50.0,FY21-22,103250.0,300.0,350.0,300.0,200.0,150.0,50.0,150.0,50.0,50.0,50.0,FY22-23,145900,450,450,450,300,250,100,200,100,50,50
30,Edithvale,Frankston line,Kingston C  ,2,19861.0,-38.03805602,145.1085355,27.409115841354883,875200.0,1500.0,400.0,2850.0,3100.0,1250.0,55.51899983549926,54.54545454545454,100.0,200.0,FY18-19,303950.0,1000.0,1050.0,850.0,550.0,400.0,150.0,550.0,200.0,100.0,50.0,FY19-20,196750.0,650.0,650.0,550.0,400.0,250.0,100.0,350.0,150.0,100.0,50.0,FY20-21,104700.0,300.0,300.0,300.0,250.0,150.0,50.0,150.0,100.0,50.0,50.0,FY21-22,101050.0,300.0,300.0,300.0,250.0,150.0,50.0,150.0,50.0,50.0,50.0,FY22-23,168750,500,550,400,400,300,50,300,100,100,50
92,Westona,Werribee line,Hobsons Bay C  ,1&2,19925.0,-37.86516348,144.8134936,14.448682277116502,864550.0,1250.0,650.0,3050.0,2500.0,1250.0,81.17843014782427,62.5,100.0,120.0,FY18-19,240150.0,850.0,900.0,550.0,350.0,250.0,100.0,400.0,150.0,200.0,50.0,FY19-20,248950.0,850.0,850.0,750.0,400.0,300.0,150.0,400.0,150.0,100.0,50.0,FY20-21,107350.0,350.0,400.0,250.0,150.0,100.0,50.0,100.0,100.0,150.0,50.0,FY21-22,73150.0,250.0,250.0,200.0,150.0,100.0,50.0,100.0,50.0,50.0,50.0,FY22-23,194950,600,650,550,400,300,100,250,100,150,50
25,Kananook,Frankston line,Frankston C  ,2,19856.0,-38.12174203,145.1352953,36.82606491374407,823950.0,1150.0,450.0,2850.0,2350.0,1550.0,52.65292328489355,44.44444444444444,100.0,166.66666666666669,FY18-19,295900.0,1000.0,1050.0,800.0,450.0,300.0,250.0,450.0,200.0,150.0,50.0,FY19-20,186150.0,650.0,650.0,500.0,300.0,200.0,150.0,300.0,150.0,100.0,50.0,FY20-21,92700.0,300.0,300.0,300.0,200.0,150.0,50.0,100.0,100.0,50.0,50.0,FY21-22,93400.0,300.0,300.0,300.0,150.0,100.0,50.0,100.0,100.0,50.0,50.0,FY22-23,155800,500,550,400,300,200,100,200,150,100,50
180,Rushall,Mernda line,Yarra C  ,1,20019.0,-37.78321711,144.9924071,4.496624098439938,819650.0,1250.0,750.0,2900.0,2550.0,1150.0,231.07041364066941,240.0,100.0,44.44444444444444,FY18-19,158350.0,500.0,550.0,400.0,300.0,200.0,50.0,250.0,100.0,150.0,50.0,FY19-20,153450.0,500.0,550.0,400.0,300.0,200.0,50.0,250.0,100.0,150.0,50.0,FY20-21,69400.0,200.0,250.0,200.0,150.0,100.0,50.0,50.0,50.0,50.0,50.0,FY21-22,72550.0,250.0,250.0,200.0,150.0,100.0,50.0,100.0,50.0,100.0,50.0,FY22-23,365900,1250,1300,1050,600,450,100,600,300,300,50
129,Fawkner,Upfield line,Merry-bek C,1&2,19962.0,-37.71462129,144.960545,11.542916942137374,817600.0,1200.0,450.0,2650.0,2900.0,1200.0,57.67085076708508,66.66666666666666,100.0,150.0,FY18-19,215100.0,700.0,700.0,650.0,400.0,350.0,100.0,300.0,150.0,100.0,50.0,FY19-20,258500.0,850.0,850.0,750.0,500.0,350.0,100.0,400.0,200.0,150.0,50.0,FY20-21,66600.0,200.0,200.0,250.0,150.0,100.0,50.0,100.0,50.0,50.0,50.0,FY21-22,153350.0,500.0,500.0,450.0,350.0,250.0,50.0,200.0,100.0,100.0,50.0,FY22-23,124050,400,400,350,250,200,50,200,100,50,50
61,East Camberwell,Ringwood line,Boroondara C  ,1,19892.0,-37.82589419,145.0681902,8.931125919376361,797900.0,1100.0,1200.0,3050.0,1850.0,1150.0,41.78989821394276,37.5,100.0,150.0,FY18-19,260350.0,950.0,1050.0,550.0,300.0,200.0,50.0,400.0,200.0,400.0,50.0,FY19-20,201450.0,700.0,800.0,400.0,250.0,150.0,50.0,300.0,150.0,300.0,50.0,FY20-21,122400.0,400.0,400.0,350.0,250.0,150.0,50.0,150.0,100.0,150.0,50.0,FY21-22,104900.0,350.0,400.0,200.0,150.0,100.0,50.0,100.0,100.0,200.0,50.0,FY22-23,108800,350,400,250,150,150,50,150,100,150,50
99,Darebin,Hurstbridge line,Banyule C  ,1,19932.0,-37.77496341,145.038476,7.918802103045867,789750.0,1350.0,550.0,2800.0,2500.0,1050.0,143.71675531914894,116.66666666666667,100.0,80.0,FY18-19,150400.0,550.0,550.0,400.0,200.0,150.0,50.0,300.0,100.0,100.0,50.0,FY19-20,239400.0,800.0,850.0,650.0,400.0,300.0,50.0,450.0,150.0,150.0,50.0,FY20-21,53850.0,150.0,200.0,100.0,100.0,50.0,50.0,50.0,50.0,50.0,50.0,FY21-22,129950.0,400.0,450.0,300.0,300.0,200.0,50.0,200.0,100.0,100.0,50.0,FY22-23,216150,700,750,500,450,350,50,350,150,150,50
77,Heyington,Glen Waverley line,Stonnington C  ,1,19909.0,-37.83467244,145.0226353,5.217291806836899,787050.0,800.0,1750.0,3200.0,1500.0,1050.0,83.30665447061514,60.0,100.0,125.0,FY18-19,218650.0,800.0,900.0,350.0,200.0,150.0,50.0,250.0,150.0,500.0,50.0,FY19-20,163100.0,600.0,700.0,250.0,150.0,100.0,50.0,200.0,100.0,350.0,50.0,FY20-21,102400.0,350.0,350.0,250.0,200.0,150.0,50.0,100.0,100.0,150.0,50.0,FY21-22,120750.0,450.0,500.0,150.0,100.0,100.0,50.0,100.0,100.0,300.0,50.0,FY22-23,182150,650,750,250,200,150,50,150,100,450,50
94,Seaholme,Werribee line,Hobsons Bay C  ,1,19927.0,-37.86784231,144.8409577,12.359907084340543,779650.0,1000.0,500.0,2400.0,3250.0,1200.0,211.69864295741695,125.0,100.0,50.0,FY18-19,106850.0,350.0,350.0,250.0,200.0,150.0,50.0,200.0,50.0,50.0,50.0,FY19-20,261900.0,850.0,850.0,750.0,550.0,400.0,100.0,350.0,200.0,150.0,50.0,FY20-21,39900.0,100.0,100.0,100.0,100.0,50.0,50.0,50.0,50.0,50.0,50.0,FY21-22,144800.0,450.0,450.0,400.0,400.0,300.0,50.0,150.0,150.0,100.0,50.0,FY22-23,226200,650,650,600,600,500,50,250,200,150,50
31,Aspendale,Frankston line,Kingston C  ,2,19862.0,-38.02722019,145.1021496,26.08166127888848,709700.0,1250.0,350.0,2450.0,2400.0,1000.0,60.02522068095839,55.55555555555556,100.0,150.0,FY18-19,237900.0,800.0,850.0,600.0,400.0,300.0,100.0,450.0,150.0,100.0,50.0,FY19-20,156650.0,500.0,550.0,400.0,300.0,200.0,50.0,300.0,100.0,50.0,50.0,FY20-21,84050.0,250.0,250.0,250.0,200.0,100.0,50.0,100.0,50.0,50.0,50.0,FY21-22,88300.0,300.0,300.0,250.0,200.0,150.0,50.0,150.0,50.0,50.0,50.0,FY22-23,142800,450,500,350,300,250,50,250,100,100,50
22,Riversdale,Ringwood line,Boroondara C  ,1,19852.0,-37.83150543,145.069646,9.137360268461554,704600.0,1400.0,950.0,2900.0,900.0,900.0,78.8775034932464,77.77777777777779,100.0,100.0,FY18-19,214700.0,800.0,900.0,500.0,150.0,100.0,50.0,450.0,100.0,250.0,50.0,FY19-20,161750.0,600.0,650.0,400.0,100.0,50.0,50.0,350.0,100.0,200.0,50.0,FY20-21,73250.0,250.0,300.0,150.0,50.0,50.0,50.0,100.0,50.0,150.0,50.0,FY21-22,85550.0,300.0,350.0,150.0,100.0,50.0,50.0,150.0,50.0,150.0,50.0,FY22-23,169350,650,700,350,150,100,50,350,100,200,50
28,Bonbeach,Frankston line,Kingston C  ,2,19859.0,-38.06294478,145.1196804,30.32057855699247,685800.0,1200.0,250.0,2250.0,2300.0,1100.0,59.2448233861145,50.0,100.0,150.0,FY18-19,205250.0,700.0,700.0,550.0,350.0,250.0,100.0,400.0,150.0,50.0,50.0,FY19-20,220450.0,700.0,750.0,600.0,400.0,300.0,100.0,400.0,150.0,50.0,50.0,FY20-21,71450.0,200.0,200.0,200.0,150.0,100.0,50.0,100.0,50.0,50.0,50.0,FY21-22,67050.0,200.0,200.0,200.0,150.0,100.0,50.0,100.0,50.0,50.0,50.0,FY22-23,121600,350,400,300,300,200,50,200,100,50,50
20,Hartwell,Ringwood line,Boroondara C  ,1,19850.0,-37.84398457,145.0755596,9.9555696916203,639400.0,1350.0,400.0,2350.0,1500.0,900.0,55.026825285747606,50.0,100.0,100.0,FY18-19,214350.0,750.0,800.0,650.0,250.0,150.0,50.0,500.0,100.0,150.0,50.0,FY19-20,165200.0,600.0,600.0,500.0,200.0,150.0,50.0,350.0,100.0,100.0,50.0,FY20-21,66400.0,200.0,250.0,200.0,100.0,100.0,50.0,100.0,50.0,50.0,50.0,FY21-22,75500.0,250.0,250.0,200.0,150.0,100.0,50.0,150.0,50.0,50.0,50.0,FY22-23,117950,400,450,300,150,150,50,250,100,50,50
95,Westgarth,Hurstbridge line,Darebin C  ,1,19928.0,-37.7806207,144.9992332,5.059362735056106,624500.0,1000.0,400.0,2050.0,2250.0,950.0,26.627516778523493,18.181818181818183,100.0,200.0,FY18-19,298000.0,1000.0,1000.0,850.0,550.0,400.0,50.0,550.0,200.0,150.0,50.0,FY19-20,89300.0,300.0,300.0,250.0,150.0,150.0,50.0,150.0,50.0,50.0,50.0,FY20-21,108300.0,350.0,350.0,300.0,250.0,150.0,50.0,150.0,100.0,100.0,50.0,FY21-22,49550.0,150.0,150.0,150.0,150.0,100.0,50.0,50.0,50.0,50.0,50.0,FY22-23,79350,250,250,200,200,150,50,100,50,50,50
154,Williamstown Beach,Werribee line,Hobsons Bay C  ,1,19992.0,-37.86398189,144.8944837,8.142831294213298,615750.0,800.0,450.0,2000.0,2200.0,950.0,69.79551613697956,50.0,100.0,125.0,FY18-19,202950.0,700.0,700.0,600.0,300.0,250.0,50.0,300.0,150.0,150.0,50.0,FY19-20,132850.0,400.0,450.0,400.0,250.0,250.0,50.0,200.0,100.0,100.0,50.0,FY20-21,78150.0,250.0,250.0,250.0,150.0,100.0,50.0,100.0,50.0,50.0,50.0,FY21-22,60150.0,150.0,150.0,200.0,200.0,100.0,50.0,50.0,50.0,50.0,50.0,FY22-23,141650,450,450,400,300,300,50,150,100,100,50
50,Officer,Dandenong line,Cardinia S  ,2,19881.0,-38.06614572,145.4109872,47.70293731243464,556450.0,950.0,400.0,2150.0,1000.0,1150.0,103.3360455655004,80.0,100.0,80.0,FY18-19,122900.0,450.0,500.0,250.0,100.0,50.0,100.0,250.0,50.0,100.0,50.0,FY19-20,132100.0,500.0,550.0,300.0,100.0,100.0,150.0,250.0,100.0,100.0,50.0,FY20-21,109600.0,400.0,400.0,300.0,150.0,100.0,100.0,150.0,100.0,100.0,50.0,FY21-22,64850.0,250.0,250.0,150.0,100.0,50.0,50.0,100.0,50.0,50.0,50.0,FY22-23,127000,450,450,350,150,100,100,200,100,50,50
153,Williamstown,Werribee line,Hobsons Bay C  ,1,19991.0,-37.86775292,144.9053233,7.715508312967411,501500.0,700.0,400.0,1650.0,2000.0,850.0,74.27424336009882,75.0,100.0,100.0,FY18-19,161900.0,500.0,550.0,500.0,300.0,250.0,50.0,200.0,100.0,150.0,50.0,FY19-20,98200.0,300.0,350.0,250.0,200.0,150.0,50.0,200.0,50.0,50.0,50.0,FY20-21,64100.0,200.0,200.0,200.0,150.0,100.0,50.0,50.0,50.0,50.0,50.0,FY21-22,57050.0,200.0,200.0,150.0,150.0,100.0,50.0,100.0,50.0,50.0,50.0,FY22-23,120250,350,350,350,350,250,50,150,100,100,50
16,Upwey,Ringwood line,Yarra Ranges S  ,2,19846.0,-37.90369097,145.3313334,33.366762893477464,499200.0,750.0,350.0,1750.0,1600.0,850.0,57.40210124164279,33.33333333333333,100.0,133.33333333333331,FY18-19,157050.0,550.0,550.0,450.0,250.0,150.0,50.0,300.0,100.0,100.0,50.0,FY19-20,120700.0,400.0,450.0,300.0,200.0,150.0,50.0,200.0,100.0,100.0,50.0,FY20-21,61700.0,200.0,200.0,150.0,150.0,100.0,50.0,50.0,50.0,50.0,50.0,FY21-22,69600.0,200.0,250.0,150.0,150.0,100.0,50.0,100.0,50.0,50.0,50.0,FY22-23,90150,300,300,250,200,150,50,100,50,50,50
17,Alamein,Ringwood line,Boroondara C  ,1,19847.0,-37.86832039,145.0796557,11.351144741208964,437800.0,950.0,250.0,1550.0,1200.0,800.0,53.60329444063143,42.857142857142854,100.0,133.33333333333331,FY18-19,145700.0,500.0,500.0,450.0,200.0,150.0,50.0,350.0,100.0,50.0,50.0,FY19-20,113450.0,400.0,400.0,350.0,150.0,100.0,50.0,250.0,50.0,50.0,50.0,FY20-21,46350.0,150.0,150.0,150.0,100.0,50.0,50.0,100.0,50.0,50.0,50.0,FY21-22,54200.0,150.0,200.0,150.0,100.0,100.0,50.0,100.0,50.0,50.0,50.0,FY22-23,78100,250,300,200,150,100,50,150,50,50,50
151,Wattle Glen,Hurstbridge line,Nillumbik S  ,2,19989.0,-37.66396792,145.1816145,25.51003083095624,320750.0,650.0,250.0,1150.0,1150.0,850.0,43.28824141519251,50.0,100.0,100.0,FY18-19,48050.0,150.0,200.0,150.0,50.0,50.0,50.0,100.0,50.0,50.0,50.0,FY19-20,151700.0,500.0,550.0,400.0,300.0,200.0,100.0,300.0,100.0,50.0,50.0,FY20-21,16600.0,50.0,50.0,50.0,50.0,50.0,50.0,50.0,50.0,50.0,50.0,FY21-22,83600.0,250.0,300.0,200.0,200.0,150.0,50.0,150.0,50.0,50.0,50.0,FY22-23,20800,50,50,50,50,50,50,50,50,50,50
21,Willison,Ringwood line,Boroondara C  ,1,19851.0,-37.83571565,145.0702976,9.279855516652994,313850.0,700.0,250.0,1200.0,700.0,750.0,61.20857699805068,60.0,100.0,100.0,FY18-19,102600.0,350.0,400.0,300.0,100.0,100.0,50.0,250.0,50.0,50.0,50.0,FY19-20,80300.0,300.0,300.0,250.0,100.0,50.0,50.0,200.0,50.0,50.0,50.0,FY20-21,32400.0,100.0,100.0,100.0,50.0,50.0,50.0,50.0,50.0,50.0,50.0,FY21-22,35750.0,100.0,150.0,100.0,50.0,50.0,50.0,50.0,50.0,50.0,50.0,FY22-23,62800,200,250,150,100,50,50,150,50,50,50
152,Hurstbridge,Hurstbridge line,Nillumbik S  ,2,19990.0,-37.63939817,145.1920169,28.062293969248817,294800.0,600.0,250.0,1000.0,1000.0,800.0,55.136012992285835,40.0,100.0,133.33333333333331,FY18-19,123150.0,400.0,450.0,350.0,200.0,150.0,100.0,250.0,50.0,50.0,50.0,FY19-20,35850.0,100.0,150.0,100.0,50.0,50.0,50.0,100.0,50.0,50.0,50.0,FY20-21,50350.0,150.0,150.0,100.0,100.0,50.0,50.0,100.0,50.0,50.0,50.0,FY21-22,17550.0,50.0,50.0,50.0,50.0,50.0,50.0,50.0,50.0,50.0,50.0,FY22-23,67900,200,200,150,150,150,50,100,50,50,50
15,Tecoma,Ringwood line,Yarra Ranges S  ,2,19845.0,-37.90811849,145.3429946,34.487774072569636,241800.0,400.0,250.0,800.0,750.0,750.0,57.96430931923331,33.33333333333333,100.0,100.0,FY18-19,75650.0,250.0,250.0,250.0,100.0,100.0,50.0,150.0,50.0,50.0,50.0,FY19-20,59400.0,200.0,200.0,150.0,100.0,100.0,50.0,100.0,50.0,50.0,50.0,FY20-21,30300.0,100.0,100.0,100.0,50.0,50.0,50.0,50.0,50.0,50.0,50.0,FY21-22,32600.0,100.0,100.0,100.0,50.0,50.0,50.0,50.0,50.0,50.0,50.0,FY22-23,43850,150,150,150,100,50,50,50,50,50,50
4,Hastings,Stony Point line,Mornington Peninsula S  ,2,19831.0,-38.30565853,145.1859799,57.48343252342631,68050.0,250.0,250.0,250.0,500.0,750.0,60.95890410958904,100.0,100.0,100.0,FY18-19,21900.0,50.0,50.0,50.0,50.0,50.0,50.0,50.0,50.0,50.0,50.0,FY19-20,14000.0,50.0,50.0,50.0,50.0,50.0,50.0,50.0,50.0,50.0,50.0,FY20-21,10500.0,50.0,50.0,50.0,50.0,50.0,50.0,50.0,50.0,50.0,50.0,FY21-22,8300.0,50.0,50.0,50.0,50.0,50.0,50.0,50.0,50.0,50.0,50.0,FY22-23,13350,50,50,50,50,50,50,50,50,50,50
1,Crib Point,Stony Point line,Mornington Peninsula S  ,2,19828.0,-38.36612338,145.2040433,64.35086498341732,53300.0,250.0,250.0,250.0,700.0,750.0,52.79329608938548,100.0,100.0,100.0,FY18-19,17900.0,50.0,50.0,50.0,150.0,100.0,50.0,50.0,50.0,50.0,50.0,FY19-20,10800.0,50.0,50.0,50.0,100.0,50.0,50.0,50.0,50.0,50.0,50.0,FY20-21,8450.0,50.0,50.0,50.0,50.0,50.0,50.0,50.0,50.0,50.0,50.0,FY21-22,6700.0,50.0,50.0,50.0,50.0,50.0,50.0,50.0,50.0,50.0,50.0,FY22-23,9450,50,50,50,50,50,50,50,50,50,50
3,Bittern,Stony Point line,Mornington Peninsula S  ,2,19830.0,-38.33739032,145.1780265,60.60401400021788,41200.0,250.0,250.0,250.0,500.0,750.0,47.63513513513514,100.0,100.0,100.0,FY18-19,14800.0,50.0,50.0,50.0,50.0,50.0,50.0,50.0,50.0,50.0,50.0,FY19-20,9400.0,50.0,50.0,50.0,50.0,50.0,50.0,50.0,50.0,50.0,50.0,FY20-21,5350.0,50.0,50.0,50.0,50.0,50.0,50.0,50.0,50.0,50.0,50.0,FY21-22,4600.0,50.0,50.0,50.0,50.0,50.0,50.0,50.0,50.0,50.0,50.0,FY22-23,7050,50,50,50,50,50,50,50,50,50,50
6,Somerville,Stony Point line,Mornington Peninsula S  ,2,19833.0,-38.22534196,145.1762449,48.83211439525588,38800.0,250.0,250.0,250.0,500.0,750.0,55.13307984790875,100.0,100.0,100.0,FY18-19,13150.0,50.0,50.0,50.0,50.0,50.0,50.0,50.0,50.0,50.0,50.0,FY19-20,8950.0,50.0,50.0,50.0,50.0,50.0,50.0,50.0,50.0,50.0,50.0,FY20-21,4950.0,50.0,50.0,50.0,50.0,50.0,50.0,50.0,50.0,50.0,50.0,FY21-22,4500.0,50.0,50.0,50.0,50.0,50.0,50.0,50.0,50.0,50.0,50.0,FY22-23,7250,50,50,50,50,50,50,50,50,50,50
9,Leawarra,Stony Point line,Frankston C  ,2,19836.0,-38.152034,145.139534,40.072573303372074,30950.0,250.0,250.0,250.0,500.0,750.0,54.146341463414636,100.0,100.0,100.0,FY18-19,10250.0,50.0,50.0,50.0,50.0,50.0,50.0,50.0,50.0,50.0,50.0,FY19-20,6750.0,50.0,50.0,50.0,50.0,50.0,50.0,50.0,50.0,50.0,50.0,FY20-21,4250.0,50.0,50.0,50.0,50.0,50.0,50.0,50.0,50.0,50.0,50.0,FY21-22,4150.0,50.0,50.0,50.0,50.0,50.0,50.0,50.0,50.0,50.0,50.0,FY22-23,5550,50,50,50,50,50,50,50,50,50,50
0,Stony Point,Stony Point line,Mornington Peninsula S  ,2,19827.0,-38.37423454,145.2218375,65.71690486803901,22750.0,250.0,250.0,250.0,500.0,750.0,101.85185185185186,100.0,100.0,100.0,FY18-19,5400.0,50.0,50.0,50.0,50.0,50.0,50.0,50.0,50.0,50.0,50.0,FY19-20,4350.0,50.0,50.0,50.0,50.0,50.0,50.0,50.0,50.0,50.0,50.0,FY20-21,3900.0,50.0,50.0,50.0,50.0,50.0,50.0,50.0,50.0,50.0,50.0,FY21-22,3600.0,50.0,50.0,50.0,50.0,50.0,50.0,50.0,50.0,50.0,50.0,FY22-23,5500,50,50,50,50,50,50,50,50,50,50
5,Tyabb,Stony Point line,Mornington Peninsula S  ,2,19832.0,-38.259815,145.1864007,52.72086663770377,17750.0,250.0,250.0,250.0,500.0,750.0,60.71428571428571,100.0,100.0,100.0,FY18-19,5600.0,50.0,50.0,50.0,50.0,50.0,50.0,50.0,50.0,50.0,50.0,FY19-20,3700.0,50.0,50.0,50.0,50.0,50.0,50.0,50.0,50.0,50.0,50.0,FY20-21,2700.0,50.0,50.0,50.0,50.0,50.0,50.0,50.0,50.0,50.0,50.0,FY21-22,2350.0,50.0,50.0,50.0,50.0,50.0,50.0,50.0,50.0,50.0,50.0,FY22-23,3400,50,50,50,50,50,50,50,50,50,50
2,Morradoo,Stony Point line,Mornington Peninsula S  ,2,19829.0,-38.35403334,145.1896025,62.67600980123037,17300.0,250.0,250.0,250.0,500.0,750.0,66.3716814159292,100.0,100.0,100.0,FY18-19,5650.0,50.0,50.0,50.0,50.0,50.0,50.0,50.0,50.0,50.0,50.0,FY19-20,3400.0,50.0,50.0,50.0,50.0,50.0,50.0,50.0,50.0,50.0,50.0,FY20-21,2200.0,50.0,50.0,50.0,50.0,50.0,50.0,50.0,50.0,50.0,50.0,FY21-22,2300.0,50.0,50.0,50.0,50.0,50.0,50.0,50.0,50.0,50.0,50.0,FY22-23,3750,50,50,50,50,50,50,50,50,50,50
7,Baxter,Stony Point line,Mornington Peninsula S  ,2,19834.0,-38.19404306,145.1605261,45.09086018086048,10900.0,250.0,250.0,250.0,500.0,750.0,63.23529411764706,100.0,100.0,100.0,FY18-19,3400.0,50.0,50.0,50.0,50.0,50.0,50.0,50.0,50.0,50.0,50.0,FY19-20,2000.0,50.0,50.0,50.0,50.0,50.0,50.0,50.0,50.0,50.0,50.0,FY20-21,1850.0,50.0,50.0,50.0,50.0,50.0,50.0,50.0,50.0,50.0,50.0,FY21-22,1500.0,50.0,50.0,50.0,50.0,50.0,50.0,50.0,50.0,50.0,50.0,FY22-23,2150,50,50,50,50,50,50,50,50,50,50
