,Zone,Line name ,Stop_name,City council,_id,year1819,Stop_ID,Stop_lat,Stop_long,Pax_annual1819,Pax_weekday1819,Pax_norm_weekday1819,Pax_sch_hol_weekday1819,Pax_Saturday1819,Pax_Sunday1819,Pax_pre_AM_peak1819,Pax_AM_peak1819,Pax_interpeak1819,Pax_PM_peak1819,Pax_PM_late1819,year1920,Pax_annual1920,Pax_weekday1920,Pax_norm_weekday1920,Pax_sch_hol_weekday1920,Pax_Saturday1920,Pax_Sunday1920,Pax_pre_AM_peak1920,Pax_AM_peak1920,Pax_interpeak1920,Pax_PM_peak1920,Pax_PM_late1920,year2021r,Pax_annual2021,Pax_weekday2021,Pax_norm_weekday2021,Pax_sch_hol_weekday2021,Pax_Saturday2021,Pax_Sunday2021,Pax_pre_AM_peak2021,Pax_AM_peak2021,Pax_interpeak2021,Pax_PM_peak2021,Pax_PM_late2021,year2122,Pax_annual2122,Pax_weekday2122,Pax_norm_weekday2122,Pax_sch_hol_weekday2122,Pax_Saturday2122,Pax_Sunday2122,Pax_pre_AM_peak2122,Pax_AM_peak2122,Pax_interpeak2122,Pax_PM_peak2122,Pax_PM_late2122,year2223,Pax_annual2223,Pax_weekday2223,Pax_norm_weekday2223,Pax_sch_hol_weekday2223,Pax_Saturday2223,Pax_Sunday2223,Pax_pre_AM_peak2223,Pax_AM_peak2223,Pax_interpeak2223,Pax_PM_peak2223,Pax_PM_late2223,Totalfootfall,TotalAMPeak,TotalPMPeak
0,2,Sunbury line,Sunbury,Hume C  ,161.0,FY18-19,15351.0,-37.57909097,144.7273188,803350.0,2600.0,2700.0,2400.0,1550.0,1050.0,700.0,1000.0,500.0,400.0,100.0,FY19-20,379400.0,1300.0,1350.0,1150.0,600.0,400.0,100.0,750.0,250.0,150.0,50.0,FY20-21,301950.0,950.0,950.0,1000.0,650.0,450.0,200.0,300.0,200.0,200.0,50.0,FY21-22,203150.0,650.0,650.0,550.0,450.0,300.0,50.0,300.0,150.0,150.0,50.0,FY22-23,581150.0,1800.0,1800.0,1850.0,1300.0,900.0,350.0,650.0,350.0,350.0,50.0,2269000.0,3000.0,1250.0
1,2,Sunbury line,Diggers Rest,Hume C  ,162.0,FY18-19,15353.0,-37.62701651,144.7199224,221250.0,800.0,850.0,700.0,200.0,150.0,150.0,550.0,100.0,50.0,50.0,FY19-20,628800.0,2050.0,2100.0,1750.0,1350.0,800.0,550.0,750.0,400.0,300.0,100.0,FY20-21,59350.0,200.0,200.0,200.0,100.0,50.0,50.0,100.0,50.0,50.0,50.0,FY21-22,362700.0,1150.0,1150.0,1000.0,750.0,550.0,250.0,400.0,250.0,200.0,50.0,FY22-23,129750.0,450.0,450.0,400.0,200.0,150.0,100.0,250.0,50.0,50.0,50.0,1401850.0,2050.0,650.0
2,2,Sunbury line,Watergardens,Brimbank C  ,163.0,FY18-19,20000.0,-37.70112872,144.7741805,1689500.0,5800.0,5950.0,5200.0,2500.0,1850.0,1050.0,3000.0,1150.0,600.0,150.0,FY19-20,185050.0,650.0,700.0,550.0,200.0,150.0,150.0,400.0,100.0,50.0,50.0,FY20-21,528500.0,1750.0,1700.0,1800.0,950.0,700.0,250.0,700.0,400.0,300.0,50.0,FY21-22,65200.0,200.0,250.0,150.0,100.0,50.0,50.0,100.0,50.0,50.0,50.0,FY22-23,1029750.0,3350.0,3450.0,3050.0,1850.0,1450.0,450.0,1700.0,750.0,450.0,100.0,3498000.0,5900.0,1450.0
3,2,Sunbury line,Keilor Plains,Brimbank C  ,164.0,FY18-19,20001.0,-37.72927934,144.7937381,808750.0,2750.0,2850.0,2450.0,1200.0,900.0,500.0,1550.0,500.0,200.0,50.0,FY19-20,1300950.0,4350.0,4550.0,3650.0,2250.0,1500.0,800.0,2200.0,900.0,500.0,100.0,FY20-21,262450.0,850.0,850.0,900.0,450.0,350.0,150.0,350.0,200.0,100.0,50.0,FY21-22,587400.0,1900.0,2000.0,1550.0,1100.0,850.0,300.0,850.0,450.0,300.0,50.0,FY22-23,483400.0,1600.0,1650.0,1400.0,850.0,650.0,250.0,850.0,300.0,150.0,50.0,3442950.0,5800.0,1250.0
4,2,Sunbury line,St Albans,Brimbank C  ,165.0,FY18-19,20002.0,-37.74486131,144.8000505,1191150.0,3950.0,4050.0,3450.0,2050.0,1650.0,400.0,1650.0,1200.0,650.0,150.0,FY19-20,632200.0,2100.0,2200.0,1800.0,1050.0,750.0,400.0,1150.0,400.0,150.0,50.0,FY20-21,500200.0,1600.0,1600.0,1600.0,1000.0,800.0,200.0,500.0,500.0,350.0,50.0,FY21-22,277900.0,900.0,950.0,750.0,500.0,350.0,150.0,450.0,200.0,100.0,50.0,FY22-23,891100.0,2850.0,2950.0,2550.0,1800.0,1400.0,300.0,1050.0,900.0,550.0,100.0,3492550.0,4800.0,1800.0
5,2,Sunbury line,Ginifer,Brimbank C  ,166.0,FY18-19,20003.0,-37.75751083,144.8095734,831750.0,2750.0,2850.0,2500.0,1400.0,1100.0,300.0,1300.0,700.0,450.0,100.0,FY19-20,963000.0,3100.0,3300.0,2550.0,1900.0,1300.0,300.0,1300.0,1000.0,550.0,100.0,FY20-21,320700.0,1050.0,1050.0,1050.0,600.0,450.0,100.0,350.0,300.0,250.0,50.0,FY21-22,610250.0,1900.0,1950.0,1700.0,1250.0,1000.0,250.0,650.0,600.0,400.0,50.0,FY22-23,519400.0,1700.0,1750.0,1500.0,900.0,700.0,150.0,750.0,450.0,400.0,50.0,3245100.0,4350.0,2050.0
6,1&2,Sunbury line,Albion,Brimbank C  ,167.0,FY18-19,20004.0,-37.77765281,144.8247036,686100.0,2350.0,2450.0,2100.0,1000.0,700.0,300.0,1350.0,450.0,250.0,50.0,FY19-20,659350.0,2150.0,2250.0,1800.0,1250.0,900.0,250.0,1000.0,550.0,350.0,50.0,FY20-21,204500.0,650.0,650.0,700.0,350.0,250.0,100.0,300.0,150.0,100.0,50.0,FY21-22,345200.0,1100.0,1150.0,950.0,650.0,500.0,100.0,450.0,300.0,250.0,50.0,FY22-23,336250.0,1100.0,1150.0,1000.0,600.0,450.0,150.0,600.0,250.0,150.0,50.0,2231400.0,3700.0,1100.0
7,1&2,Sunbury line,Sunshine,Brimbank C  ,182.0,FY18-19,20021.0,-37.78853633,144.8328782,2157750.0,7000.0,7150.0,6250.0,4050.0,3300.0,600.0,2650.0,1800.0,1750.0,350.0,FY19-20,124600.0,400.0,450.0,300.0,250.0,200.0,50.0,200.0,100.0,100.0,50.0,FY20-21,896350.0,2900.0,2950.0,2700.0,1700.0,1200.0,250.0,800.0,850.0,900.0,150.0,FY21-22,69100.0,200.0,200.0,200.0,150.0,150.0,50.0,50.0,50.0,50.0,50.0,FY22-23,466850.0,1600.0,1650.0,1300.0,750.0,500.0,150.0,950.0,300.0,300.0,50.0,3714650.0,4650.0,3100.0
8,1,Sunbury line,Tottenham,Maribyrnong C  ,183.0,FY18-19,20022.0,-37.7992509,144.8629449,613100.0,2050.0,2100.0,1900.0,1000.0,700.0,200.0,1050.0,450.0,350.0,50.0,FY19-20,1753250.0,5700.0,5850.0,5300.0,3300.0,2400.0,500.0,2000.0,1500.0,1550.0,300.0,FY20-21,190650.0,600.0,600.0,650.0,350.0,250.0,50.0,200.0,150.0,150.0,50.0,FY21-22,1235800.0,3950.0,4000.0,3700.0,2550.0,1850.0,300.0,1200.0,1050.0,1200.0,200.0,FY22-23,173550.0,550.0,600.0,500.0,350.0,250.0,50.0,300.0,100.0,100.0,50.0,3966350.0,4750.0,3350.0
9,1,Sunbury line,West Footscray,Maribyrnong C  ,184.0,FY18-19,20023.0,-37.8018087,144.8853248,733050.0,2500.0,2550.0,2300.0,1150.0,750.0,250.0,1450.0,450.0,350.0,50.0,FY19-20,442450.0,1450.0,1550.0,1250.0,750.0,550.0,150.0,750.0,350.0,250.0,50.0,FY20-21,213500.0,700.0,700.0,700.0,350.0,250.0,50.0,300.0,150.0,150.0,50.0,FY21-22,232450.0,750.0,800.0,700.0,450.0,300.0,50.0,300.0,200.0,200.0,50.0,FY22-23,3957000.0,12900.0,13600.0,10400.0,7750.0,5350.0,650.0,3800.0,3650.0,4600.0,850.0,5578450.0,6600.0,5550.0
10,1,Sunbury line,Middle Footscray,Maribyrnong C  ,185.0,FY18-19,20024.0,-37.8025047,144.8914721,279700.0,950.0,950.0,850.0,500.0,350.0,50.0,500.0,200.0,150.0,50.0,FY19-20,515950.0,1700.0,1800.0,1400.0,900.0,600.0,150.0,1000.0,350.0,250.0,50.0,FY20-21,81800.0,250.0,250.0,250.0,200.0,150.0,50.0,100.0,50.0,50.0,50.0,FY21-22,283750.0,950.0,950.0,800.0,500.0,350.0,100.0,500.0,200.0,200.0,50.0,FY22-23,283350.0,900.0,950.0,750.0,550.0,450.0,50.0,400.0,200.0,250.0,50.0,1444550.0,2500.0,900.0
11,1,Sunbury line,Footscray,Maribyrnong C  ,186.0,FY18-19,20025.0,-37.80108298,144.9031992,5332950.0,17700.0,18300.0,15300.0,9800.0,6550.0,750.0,5400.0,4750.0,6150.0,1250.0,FY19-20,191600.0,600.0,650.0,500.0,400.0,250.0,50.0,350.0,150.0,100.0,50.0,FY20-21,2056000.0,6550.0,6550.0,6450.0,4300.0,2900.0,350.0,1650.0,1900.0,2250.0,450.0,FY21-22,103450.0,350.0,350.0,300.0,250.0,150.0,50.0,150.0,100.0,50.0,50.0,FY22-23,129200.0,150.0,150.0,50.0,1400.0,100.0,50.0,50.0,50.0,50.0,100.0,7813200.0,7600.0,8600.0
12,1,Sunbury line,South Kensington,Melbourne C  ,187.0,FY18-19,20026.0,-37.79953087,144.925469,412850.0,1400.0,1450.0,1300.0,650.0,450.0,100.0,700.0,300.0,300.0,50.0,FY19-20,4038750.0,13350.0,14050.0,11100.0,7550.0,4800.0,600.0,4100.0,3800.0,4650.0,900.0,FY20-21,127950.0,400.0,400.0,400.0,250.0,200.0,50.0,150.0,100.0,100.0,50.0,FY21-22,2783000.0,8800.0,9050.0,7900.0,6050.0,4150.0,450.0,2400.0,2450.0,3150.0,600.0,FY22-23,725000.0,2300.0,2350.0,2050.0,1450.0,1200.0,150.0,550.0,700.0,800.0,150.0,8087550.0,7900.0,9000.0
13,1,Sunbury line,North Melbourne,Melbourne C  ,216.0,FY18-19,19973.0,-37.80630984,144.9415102,1497300.0,4550.0,4700.0,3950.0,3400.0,3350.0,100.0,700.0,950.0,2500.0,450.0,FY19-20,10865600.0,36300.0,38250.0,29850.0,17100.0,13850.0,200.0,1300.0,7850.0,21750.0,7150.0,FY20-21,2213650.0,7900.0,8150.0,7050.0,2350.0,1550.0,50.0,300.0,1600.0,5250.0,950.0,FY21-22,2911250.0,10300.0,10800.0,8400.0,3750.0,2300.0,100.0,450.0,2000.0,7000.0,1300.0,FY22-23,1144850.0,3400.0,3500.0,3100.0,3200.0,2350.0,150.0,550.0,750.0,1700.0,350.0,18632650.0,3300.0,38200.0
14,1,Sunbury line,Flagstaff,Melbourne C  ,211.0,FY18-19,19841.0,-37.81198131,144.9556538,4854950.0,18500.0,19300.0,15400.0,2600.0,1850.0,100.0,750.0,2600.0,14050.0,1750.0,FY19-20,441650.0,1300.0,1300.0,1300.0,1150.0,900.0,100.0,300.0,400.0,450.0,100.0,FY20-21,103900.0,350.0,400.0,200.0,150.0,100.0,50.0,100.0,50.0,150.0,50.0,FY21-22,115350.0,400.0,450.0,200.0,150.0,100.0,50.0,150.0,50.0,200.0,50.0,FY22-23,2758300.0,10250.0,11000.0,7550.0,2150.0,1550.0,100.0,700.0,2100.0,7150.0,950.0,8274150.0,2000.0,22000.0
15,1,Sunbury line,Melbourne Central,Melbourne C  ,212.0,FY18-19,19842.0,-37.80993877,144.9625935,15250700.0,51500.0,53150.0,45000.0,23850.0,18950.0,300.0,1700.0,10400.0,30350.0,10450.0,FY19-20,184700.0,650.0,700.0,500.0,200.0,150.0,100.0,350.0,100.0,150.0,50.0,FY20-21,70900.0,250.0,250.0,200.0,150.0,100.0,50.0,100.0,50.0,50.0,50.0,FY21-22,87950.0,300.0,300.0,250.0,150.0,100.0,50.0,150.0,50.0,50.0,50.0,FY22-23,8626300.0,29000.0,30600.0,22700.0,13700.0,10550.0,250.0,1300.0,7100.0,17050.0,4950.0,24220550.0,3600.0,47650.0
16,1,Sunbury line,Parliament,Melbourne C  ,213.0,FY18-19,19843.0,-37.81105406,144.9729109,10124200.0,38000.0,39650.0,31600.0,7000.0,4850.0,150.0,1050.0,5300.0,28850.0,4200.0,FY19-20,181900.0,650.0,650.0,550.0,250.0,150.0,150.0,400.0,100.0,50.0,50.0,FY20-21,327900.0,1100.0,1150.0,900.0,600.0,400.0,200.0,550.0,200.0,150.0,50.0,FY21-22,447850.0,1400.0,1500.0,1200.0,900.0,650.0,250.0,750.0,300.0,150.0,50.0,FY22-23,4723950.0,17500.0,18700.0,12750.0,4000.0,2750.0,100.0,850.0,3100.0,12650.0,2050.0,15805800.0,3600.0,41850.0
17,1,Sunbury line,Flinders Street,Melbourne C  ,214.0,FY18-19,19854.0,-37.81830513,144.9669643,28320650.0,93050.0,94900.0,85900.0,52050.0,38750.0,1900.0,4850.0,16650.0,55250.0,16250.0,FY19-20,527250.0,1800.0,1850.0,1600.0,800.0,500.0,500.0,900.0,250.0,150.0,50.0,FY20-21,1378000.0,5050.0,5200.0,4450.0,1200.0,800.0,100.0,350.0,900.0,3400.0,450.0,FY21-22,1681700.0,6100.0,6450.0,4900.0,1650.0,1100.0,100.0,400.0,1100.0,4300.0,550.0,FY22-23,18793400.0,56800.0,56700.0,57200.0,47800.0,35350.0,1350.0,3300.0,11200.0,29950.0,10900.0,50701000.0,9800.0,93050.0
18,1,Sunbury line,Southern Cross,Melbourne C  ,218.0,FY18-19,22180.0,-37.81793643,144.9514112,19551450.0,68350.0,70650.0,59550.0,25200.0,19350.0,650.0,3450.0,10750.0,48000.0,7800.0,FY19-20,21503500.0,70500.0,72650.0,63400.0,39400.0,28950.0,1300.0,3950.0,13250.0,42400.0,11750.0,FY20-21,1292650.0,3450.0,3600.0,3050.0,3500.0,3050.0,100.0,450.0,650.0,1550.0,850.0,FY21-22,1966800.0,4650.0,4750.0,4300.0,7350.0,5750.0,100.0,550.0,700.0,2100.0,1250.0,FY22-23,10942400.0,35900.0,37050.0,31400.0,19550.0,16250.0,450.0,2400.0,6750.0,23000.0,4400.0,55256800.0,10800.0,117050.0
19,1,Alamein line,Alamein,Boroondara C  ,18.0,FY18-19,19847.0,-37.86832039,145.0796557,145700.0,500.0,500.0,450.0,200.0,150.0,50.0,350.0,100.0,50.0,50.0,FY19-20,113450.0,400.0,400.0,350.0,150.0,100.0,50.0,250.0,50.0,50.0,50.0,FY20-21,46350.0,150.0,150.0,150.0,100.0,50.0,50.0,100.0,50.0,50.0,50.0,FY21-22,54200.0,150.0,200.0,150.0,100.0,100.0,50.0,100.0,50.0,50.0,50.0,FY22-23,78100.0,250.0,300.0,200.0,150.0,100.0,50.0,150.0,50.0,50.0,50.0,437800.0,950.0,250.0
20,1,Alamein line,Ashburton,Boroondara C  ,19.0,FY18-19,19848.0,-37.86196753,145.0813438,299050.0,1050.0,1100.0,900.0,400.0,300.0,100.0,700.0,150.0,100.0,50.0,FY19-20,239200.0,850.0,850.0,700.0,300.0,200.0,100.0,550.0,150.0,100.0,50.0,FY20-21,100200.0,350.0,350.0,300.0,150.0,100.0,50.0,150.0,100.0,50.0,50.0,FY21-22,109450.0,350.0,400.0,300.0,200.0,150.0,50.0,200.0,100.0,50.0,50.0,FY22-23,168550.0,600.0,600.0,450.0,250.0,200.0,50.0,350.0,100.0,100.0,50.0,916450.0,1950.0,400.0
21,1,Alamein line,Burwood,Boroondara C  ,20.0,FY18-19,19849.0,-37.85156328,145.0805111,357550.0,1300.0,1350.0,1100.0,400.0,300.0,100.0,850.0,200.0,200.0,50.0,FY19-20,268750.0,950.0,1000.0,800.0,350.0,250.0,50.0,600.0,150.0,150.0,50.0,FY20-21,106400.0,350.0,350.0,300.0,150.0,100.0,50.0,200.0,100.0,50.0,50.0,FY21-22,116850.0,400.0,400.0,300.0,200.0,150.0,50.0,250.0,100.0,50.0,50.0,FY22-23,194700.0,700.0,750.0,500.0,250.0,150.0,50.0,450.0,100.0,100.0,50.0,1044250.0,2350.0,550.0
22,1,Alamein line,Hartwell,Boroondara C  ,21.0,FY18-19,19850.0,-37.84398457,145.0755596,214350.0,750.0,800.0,650.0,250.0,150.0,50.0,500.0,100.0,150.0,50.0,FY19-20,165200.0,600.0,600.0,500.0,200.0,150.0,50.0,350.0,100.0,100.0,50.0,FY20-21,66400.0,200.0,250.0,200.0,100.0,100.0,50.0,100.0,50.0,50.0,50.0,FY21-22,75500.0,250.0,250.0,200.0,150.0,100.0,50.0,150.0,50.0,50.0,50.0,FY22-23,117950.0,400.0,450.0,300.0,150.0,150.0,50.0,250.0,100.0,50.0,50.0,639400.0,1350.0,400.0
23,1,Alamein line,Willison,Boroondara C  ,22.0,FY18-19,19851.0,-37.83571565,145.0702976,102600.0,350.0,400.0,300.0,100.0,100.0,50.0,250.0,50.0,50.0,50.0,FY19-20,80300.0,300.0,300.0,250.0,100.0,50.0,50.0,200.0,50.0,50.0,50.0,FY20-21,32400.0,100.0,100.0,100.0,50.0,50.0,50.0,50.0,50.0,50.0,50.0,FY21-22,35750.0,100.0,150.0,100.0,50.0,50.0,50.0,50.0,50.0,50.0,50.0,FY22-23,62800.0,200.0,250.0,150.0,100.0,50.0,50.0,150.0,50.0,50.0,50.0,313850.0,700.0,250.0
24,1,Alamein line,Riversdale,Boroondara C  ,23.0,FY18-19,19852.0,-37.83150543,145.069646,214700.0,800.0,900.0,500.0,150.0,100.0,50.0,450.0,100.0,250.0,50.0,FY19-20,161750.0,600.0,650.0,400.0,100.0,50.0,50.0,350.0,100.0,200.0,50.0,FY20-21,73250.0,250.0,300.0,150.0,50.0,50.0,50.0,100.0,50.0,150.0,50.0,FY21-22,85550.0,300.0,350.0,150.0,100.0,50.0,50.0,150.0,50.0,150.0,50.0,FY22-23,169350.0,650.0,700.0,350.0,150.0,100.0,50.0,350.0,100.0,200.0,50.0,704600.0,1400.0,950.0
25,1,Alamein line,Camberwell,Boroondara C  ,24.0,FY18-19,19853.0,-37.82656714,145.0586972,1969600.0,6250.0,6450.0,5550.0,3800.0,3550.0,200.0,2050.0,1200.0,2550.0,400.0,FY19-20,1496350.0,4850.0,5050.0,4200.0,2650.0,2300.0,150.0,1600.0,1000.0,1950.0,350.0,FY20-21,641150.0,2000.0,2000.0,1900.0,1350.0,1150.0,50.0,500.0,500.0,850.0,150.0,FY21-22,789300.0,2400.0,2550.0,2050.0,1750.0,1500.0,100.0,700.0,600.0,1000.0,200.0,FY22-23,1631400.0,5200.0,5500.0,4050.0,3150.0,2900.0,200.0,1950.0,1250.0,1750.0,300.0,6527800.0,6800.0,8100.0
26,1,Alamein line,Auburn,Boroondara C  ,73.0,FY18-19,19903.0,-37.82239831,145.0458437,744050.0,2500.0,2600.0,2100.0,1250.0,900.0,100.0,1200.0,550.0,650.0,100.0,FY19-20,584350.0,1950.0,2050.0,1600.0,1050.0,750.0,100.0,950.0,400.0,500.0,100.0,FY20-21,749450.0,2500.0,2650.0,1950.0,1200.0,850.0,50.0,400.0,750.0,1250.0,200.0,FY21-22,331450.0,1050.0,1100.0,850.0,750.0,550.0,50.0,400.0,250.0,300.0,50.0,FY22-23,555400.0,1750.0,1800.0,1500.0,1250.0,950.0,100.0,750.0,400.0,500.0,100.0,2964700.0,3700.0,3200.0
27,1,Alamein line,Glenferrie,Boroondara C  ,74.0,FY18-19,19904.0,-37.82146682,145.0364388,2729100.0,9800.0,10450.0,7350.0,2950.0,2200.0,200.0,1750.0,2600.0,4850.0,1000.0,FY19-20,1949900.0,6850.0,7450.0,4900.0,2450.0,1650.0,150.0,1300.0,1900.0,3450.0,700.0,FY20-21,243600.0,800.0,850.0,700.0,400.0,300.0,50.0,250.0,200.0,350.0,50.0,FY21-22,1068450.0,3600.0,3950.0,2450.0,1650.0,1200.0,50.0,550.0,1150.0,1850.0,350.0,FY22-23,1747000.0,6050.0,6500.0,4350.0,2400.0,1850.0,100.0,950.0,1800.0,3050.0,600.0,7738050.0,4800.0,13550.0
28,1,Alamein line,Hawthorn,Boroondara C  ,75.0,FY18-19,19905.0,-37.82182601,145.0228987,709100.0,2500.0,2600.0,2050.0,950.0,700.0,100.0,1050.0,450.0,900.0,100.0,FY19-20,553450.0,1900.0,2050.0,1550.0,750.0,550.0,100.0,800.0,400.0,700.0,50.0,FY20-21,303500.0,850.0,900.0,750.0,1000.0,650.0,50.0,250.0,200.0,350.0,50.0,FY21-22,285900.0,950.0,1000.0,700.0,550.0,400.0,50.0,300.0,200.0,400.0,50.0,FY22-23,469400.0,1550.0,1650.0,1250.0,800.0,650.0,50.0,550.0,350.0,650.0,50.0,2321350.0,2950.0,3000.0
29,1,Alamein line,Burnley,Yarra C  ,76.0,FY18-19,19906.0,-37.82756022,145.0075551,865300.0,2650.0,2700.0,2550.0,2100.0,1400.0,100.0,1100.0,450.0,900.0,150.0,FY19-20,633700.0,2150.0,2200.0,1950.0,1200.0,650.0,100.0,850.0,350.0,750.0,150.0,FY20-21,198600.0,700.0,700.0,600.0,300.0,200.0,50.0,100.0,100.0,400.0,50.0,FY21-22,455750.0,1250.0,1200.0,1400.0,1700.0,1050.0,50.0,350.0,250.0,450.0,100.0,FY22-23,709000.0,2050.0,1900.0,2700.0,2000.0,1700.0,50.0,600.0,350.0,750.0,150.0,2862350.0,3000.0,3250.0
30,1,Alamein line,East Richmond,Yarra C  ,77.0,FY18-19,19907.0,-37.82639995,144.9970657,666900.0,2500.0,2600.0,2200.0,500.0,300.0,50.0,400.0,300.0,1650.0,200.0,FY19-20,506300.0,1850.0,1950.0,1600.0,450.0,250.0,50.0,300.0,250.0,1200.0,150.0,FY20-21,99050.0,350.0,450.0,100.0,100.0,50.0,50.0,50.0,100.0,250.0,50.0,FY21-22,251800.0,850.0,900.0,700.0,400.0,250.0,50.0,150.0,150.0,550.0,50.0,FY22-23,457450.0,1600.0,1700.0,1350.0,600.0,400.0,50.0,250.0,250.0,1050.0,150.0,1981500.0,1150.0,4700.0
31,1,Alamein line,Richmond,Yarra C  ,215.0,FY18-19,19908.0,-37.82407446,144.9901643,4227000.0,11800.0,11850.0,11650.0,12700.0,8950.0,250.0,1700.0,1650.0,5000.0,3250.0,FY19-20,3883350.0,14600.0,15350.0,12100.0,2200.0,1600.0,100.0,650.0,2250.0,10950.0,1400.0,FY20-21,4206700.0,13550.0,13350.0,14150.0,7700.0,5800.0,100.0,550.0,3150.0,7450.0,2050.0,FY21-22,5491300.0,17600.0,18050.0,16050.0,10850.0,7900.0,200.0,850.0,4150.0,9900.0,2900.0,FY22-23,3105850.0,7850.0,8000.0,7300.0,11050.0,8750.0,150.0,850.0,1050.0,3400.0,2550.0,20914200.0,4600.0,36700.0
32,1,Alamein line,Parliament,Melbourne C  ,213.0,FY18-19,19843.0,-37.81105406,144.9729109,10124200.0,38000.0,39650.0,31600.0,7000.0,4850.0,150.0,1050.0,5300.0,28850.0,4200.0,FY19-20,181900.0,650.0,650.0,550.0,250.0,150.0,150.0,400.0,100.0,50.0,50.0,FY20-21,327900.0,1100.0,1150.0,900.0,600.0,400.0,200.0,550.0,200.0,150.0,50.0,FY21-22,447850.0,1400.0,1500.0,1200.0,900.0,650.0,250.0,750.0,300.0,150.0,50.0,FY22-23,4723950.0,17500.0,18700.0,12750.0,4000.0,2750.0,100.0,850.0,3100.0,12650.0,2050.0,15805800.0,3600.0,41850.0
33,1,Alamein line,Melbourne Central,Melbourne C  ,212.0,FY18-19,19842.0,-37.80993877,144.9625935,15250700.0,51500.0,53150.0,45000.0,23850.0,18950.0,300.0,1700.0,10400.0,30350.0,10450.0,FY19-20,184700.0,650.0,700.0,500.0,200.0,150.0,100.0,350.0,100.0,150.0,50.0,FY20-21,70900.0,250.0,250.0,200.0,150.0,100.0,50.0,100.0,50.0,50.0,50.0,FY21-22,87950.0,300.0,300.0,250.0,150.0,100.0,50.0,150.0,50.0,50.0,50.0,FY22-23,8626300.0,29000.0,30600.0,22700.0,13700.0,10550.0,250.0,1300.0,7100.0,17050.0,4950.0,24220550.0,3600.0,47650.0
34,1,Alamein line,Flagstaff,Melbourne C  ,211.0,FY18-19,19841.0,-37.81198131,144.9556538,4854950.0,18500.0,19300.0,15400.0,2600.0,1850.0,100.0,750.0,2600.0,14050.0,1750.0,FY19-20,441650.0,1300.0,1300.0,1300.0,1150.0,900.0,100.0,300.0,400.0,450.0,100.0,FY20-21,103900.0,350.0,400.0,200.0,150.0,100.0,50.0,100.0,50.0,150.0,50.0,FY21-22,115350.0,400.0,450.0,200.0,150.0,100.0,50.0,150.0,50.0,200.0,50.0,FY22-23,2758300.0,10250.0,11000.0,7550.0,2150.0,1550.0,100.0,700.0,2100.0,7150.0,950.0,8274150.0,2000.0,22000.0
35,1,Alamein line,Southern Cross,Melbourne C  ,218.0,FY18-19,22180.0,-37.81793643,144.9514112,19551450.0,68350.0,70650.0,59550.0,25200.0,19350.0,650.0,3450.0,10750.0,48000.0,7800.0,FY19-20,21503500.0,70500.0,72650.0,63400.0,39400.0,28950.0,1300.0,3950.0,13250.0,42400.0,11750.0,FY20-21,1292650.0,3450.0,3600.0,3050.0,3500.0,3050.0,100.0,450.0,650.0,1550.0,850.0,FY21-22,1966800.0,4650.0,4750.0,4300.0,7350.0,5750.0,100.0,550.0,700.0,2100.0,1250.0,FY22-23,10942400.0,35900.0,37050.0,31400.0,19550.0,16250.0,450.0,2400.0,6750.0,23000.0,4400.0,55256800.0,10800.0,117050.0
36,1,Alamein line,Flinders Street,Melbourne C  ,214.0,FY18-19,19854.0,-37.81830513,144.9669643,28320650.0,93050.0,94900.0,85900.0,52050.0,38750.0,1900.0,4850.0,16650.0,55250.0,16250.0,FY19-20,527250.0,1800.0,1850.0,1600.0,800.0,500.0,500.0,900.0,250.0,150.0,50.0,FY20-21,1378000.0,5050.0,5200.0,4450.0,1200.0,800.0,100.0,350.0,900.0,3400.0,450.0,FY21-22,1681700.0,6100.0,6450.0,4900.0,1650.0,1100.0,100.0,400.0,1100.0,4300.0,550.0,FY22-23,18793400.0,56800.0,56700.0,57200.0,47800.0,35350.0,1350.0,3300.0,11200.0,29950.0,10900.0,50701000.0,9800.0,93050.0
37,2,Belgrave line,Belgrave,Yarra Ranges S  ,15.0,FY18-19,19844.0,-37.9091021,145.3552913,389750.0,1250.0,1250.0,1200.0,800.0,600.0,250.0,450.0,250.0,300.0,50.0,FY19-20,296550.0,950.0,950.0,900.0,650.0,450.0,150.0,350.0,200.0,200.0,50.0,FY20-21,143400.0,450.0,450.0,400.0,350.0,250.0,50.0,150.0,100.0,100.0,50.0,FY21-22,152800.0,450.0,500.0,400.0,350.0,250.0,50.0,150.0,100.0,150.0,50.0,FY22-23,197600.0,600.0,600.0,600.0,500.0,400.0,50.0,150.0,150.0,200.0,50.0,1180100.0,1250.0,950.0
38,2,Belgrave line,Tecoma,Yarra Ranges S  ,16.0,FY18-19,19845.0,-37.90811849,145.3429946,75650.0,250.0,250.0,250.0,100.0,100.0,50.0,150.0,50.0,50.0,50.0,FY19-20,59400.0,200.0,200.0,150.0,100.0,100.0,50.0,100.0,50.0,50.0,50.0,FY20-21,30300.0,100.0,100.0,100.0,50.0,50.0,50.0,50.0,50.0,50.0,50.0,FY21-22,32600.0,100.0,100.0,100.0,50.0,50.0,50.0,50.0,50.0,50.0,50.0,FY22-23,43850.0,150.0,150.0,150.0,100.0,50.0,50.0,50.0,50.0,50.0,50.0,241800.0,400.0,250.0
39,2,Belgrave line,Upwey,Yarra Ranges S  ,17.0,FY18-19,19846.0,-37.90369097,145.3313334,157050.0,550.0,550.0,450.0,250.0,150.0,50.0,300.0,100.0,100.0,50.0,FY19-20,120700.0,400.0,450.0,300.0,200.0,150.0,50.0,200.0,100.0,100.0,50.0,FY20-21,61700.0,200.0,200.0,150.0,150.0,100.0,50.0,50.0,50.0,50.0,50.0,FY21-22,69600.0,200.0,250.0,150.0,150.0,100.0,50.0,100.0,50.0,50.0,50.0,FY22-23,90150.0,300.0,300.0,250.0,200.0,150.0,50.0,100.0,50.0,50.0,50.0,499200.0,750.0,350.0
40,2,Belgrave line,Upper Ferntree Gully,Knox C  ,37.0,FY18-19,19867.0,-37.8926717,145.3075302,264650.0,900.0,900.0,800.0,450.0,350.0,200.0,450.0,150.0,100.0,50.0,FY19-20,210850.0,700.0,700.0,600.0,400.0,300.0,150.0,350.0,100.0,100.0,50.0,FY20-21,162600.0,550.0,550.0,450.0,300.0,200.0,100.0,250.0,100.0,100.0,50.0,FY21-22,103250.0,300.0,350.0,300.0,200.0,150.0,50.0,150.0,50.0,50.0,50.0,FY22-23,145900.0,450.0,450.0,450.0,300.0,250.0,100.0,200.0,100.0,50.0,50.0,887250.0,1400.0,400.0
41,2,Belgrave line,Ferntree Gully,Knox C  ,38.0,FY18-19,19868.0,-37.88169799,145.2952513,491150.0,1700.0,1750.0,1550.0,650.0,450.0,350.0,1000.0,250.0,150.0,50.0,FY19-20,375900.0,1300.0,1350.0,1150.0,550.0,350.0,250.0,750.0,200.0,150.0,50.0,FY20-21,243500.0,800.0,800.0,750.0,450.0,350.0,100.0,350.0,200.0,150.0,50.0,FY21-22,188800.0,600.0,650.0,550.0,350.0,250.0,100.0,300.0,150.0,100.0,50.0,FY22-23,246500.0,800.0,850.0,800.0,450.0,300.0,100.0,400.0,150.0,100.0,50.0,1545850.0,2800.0,650.0
42,2,Belgrave line,Boronia,Knox C  ,39.0,FY18-19,19869.0,-37.8604518,145.2843851,677500.0,2300.0,2400.0,2000.0,1050.0,700.0,400.0,1250.0,450.0,250.0,50.0,FY19-20,539350.0,1800.0,1900.0,1550.0,850.0,600.0,300.0,1000.0,350.0,200.0,50.0,FY20-21,213500.0,700.0,700.0,650.0,400.0,300.0,50.0,250.0,150.0,150.0,50.0,FY21-22,269450.0,850.0,900.0,750.0,500.0,350.0,100.0,400.0,200.0,150.0,50.0,FY22-23,355950.0,1150.0,1200.0,1100.0,700.0,500.0,150.0,550.0,250.0,200.0,50.0,2055750.0,3450.0,950.0
43,2,Belgrave line,Bayswater,Knox C  ,40.0,FY18-19,19870.0,-37.84173004,145.2681364,538050.0,1850.0,1900.0,1650.0,800.0,550.0,300.0,950.0,300.0,300.0,50.0,FY19-20,417400.0,1400.0,1450.0,1250.0,650.0,400.0,250.0,750.0,250.0,200.0,50.0,FY20-21,96050.0,300.0,350.0,250.0,150.0,100.0,50.0,150.0,50.0,100.0,50.0,FY21-22,263750.0,850.0,900.0,750.0,500.0,350.0,100.0,350.0,200.0,200.0,50.0,FY22-23,329600.0,1100.0,1100.0,1050.0,600.0,450.0,100.0,500.0,250.0,200.0,50.0,1644850.0,2700.0,1000.0
44,2,Belgrave line,Heathmont,Maroondah C  ,41.0,FY18-19,19871.0,-37.82832227,145.2445554,273900.0,950.0,1000.0,800.0,350.0,250.0,100.0,600.0,150.0,150.0,50.0,FY19-20,214600.0,750.0,800.0,600.0,300.0,200.0,100.0,450.0,100.0,100.0,50.0,FY20-21,194000.0,600.0,600.0,550.0,450.0,300.0,50.0,250.0,150.0,150.0,50.0,FY21-22,105300.0,350.0,350.0,250.0,200.0,150.0,50.0,150.0,50.0,100.0,50.0,FY22-23,137150.0,450.0,500.0,400.0,250.0,150.0,50.0,250.0,100.0,100.0,50.0,924950.0,1700.0,600.0
45,2,Belgrave line,Ringwood,Maroondah C  ,72.0,FY18-19,19902.0,-37.81588648,145.2289685,1871350.0,5800.0,5900.0,5300.0,4200.0,3400.0,450.0,2000.0,1400.0,1600.0,400.0,FY19-20,1475200.0,4650.0,4750.0,4200.0,3300.0,2350.0,400.0,1600.0,1150.0,1300.0,300.0,FY20-21,278650.0,900.0,900.0,800.0,600.0,400.0,50.0,300.0,200.0,300.0,50.0,FY21-22,1080200.0,3200.0,3250.0,3050.0,2900.0,2050.0,200.0,850.0,850.0,1100.0,200.0,FY22-23,1334550.0,4150.0,4150.0,4150.0,3100.0,2300.0,250.0,950.0,1050.0,1650.0,300.0,6039950.0,5700.0,5950.0
46,2,Belgrave line,Heatherdale,Maroondah C  ,71.0,FY18-19,19901.0,-37.81889537,145.2127872,605900.0,2150.0,2250.0,1850.0,650.0,500.0,350.0,1350.0,300.0,250.0,50.0,FY19-20,471200.0,1650.0,1750.0,1400.0,600.0,400.0,300.0,1000.0,250.0,200.0,50.0,FY20-21,852050.0,2600.0,2600.0,2550.0,2050.0,1500.0,150.0,650.0,700.0,900.0,200.0,FY21-22,224400.0,750.0,800.0,600.0,350.0,250.0,100.0,450.0,100.0,100.0,50.0,FY22-23,289950.0,1000.0,1000.0,950.0,400.0,300.0,100.0,550.0,150.0,150.0,50.0,2443500.0,4000.0,1600.0
47,2,Belgrave line,Mitcham,Whitehorse C  ,70.0,FY18-19,19900.0,-37.81800987,145.1919735,1241550.0,4300.0,4450.0,3700.0,1700.0,1250.0,550.0,2400.0,650.0,700.0,100.0,FY19-20,945050.0,3250.0,3400.0,2750.0,1450.0,900.0,450.0,1800.0,550.0,500.0,100.0,FY20-21,185950.0,650.0,650.0,550.0,300.0,200.0,100.0,350.0,100.0,100.0,50.0,FY21-22,511650.0,1650.0,1750.0,1400.0,1000.0,700.0,150.0,800.0,350.0,350.0,50.0,FY22-23,647850.0,2200.0,2200.0,2050.0,1050.0,800.0,200.0,1050.0,450.0,500.0,50.0,3532050.0,6400.0,2150.0
48,2,Belgrave line,Nunawading,Whitehorse C  ,69.0,FY18-19,19899.0,-37.82060317,145.1748917,1148000.0,3900.0,4000.0,3400.0,1750.0,1450.0,350.0,2050.0,750.0,700.0,150.0,FY19-20,888900.0,2950.0,3050.0,2550.0,1500.0,1150.0,250.0,1550.0,600.0,550.0,100.0,FY20-21,401050.0,1300.0,1350.0,1150.0,700.0,500.0,150.0,600.0,300.0,300.0,50.0,FY21-22,421250.0,1350.0,1400.0,1150.0,850.0,600.0,100.0,550.0,300.0,350.0,50.0,FY22-23,526300.0,1750.0,1750.0,1600.0,950.0,800.0,100.0,750.0,400.0,450.0,50.0,3385500.0,5500.0,2350.0
49,2,Belgrave line,Blackburn,Whitehorse C  ,68.0,FY18-19,19898.0,-37.82007075,145.1500135,1484400.0,5050.0,5250.0,4350.0,2200.0,1700.0,400.0,2700.0,950.0,1000.0,150.0,FY19-20,1185100.0,3950.0,4150.0,3250.0,2050.0,1500.0,300.0,2100.0,800.0,800.0,150.0,FY20-21,390550.0,1250.0,1250.0,1150.0,800.0,550.0,100.0,450.0,300.0,350.0,50.0,FY21-22,607450.0,1950.0,2050.0,1550.0,1200.0,900.0,150.0,850.0,450.0,550.0,100.0,FY22-23,777500.0,2500.0,2550.0,2300.0,1600.0,1300.0,150.0,1050.0,550.0,700.0,100.0,4445000.0,7150.0,3400.0
50,2,Belgrave line,Laburnum,Whitehorse C  ,67.0,FY18-19,19897.0,-37.82078023,145.1407027,414700.0,1400.0,1500.0,1050.0,600.0,450.0,100.0,750.0,250.0,350.0,50.0,FY19-20,340950.0,1150.0,1200.0,850.0,600.0,400.0,100.0,600.0,250.0,250.0,50.0,FY20-21,533050.0,1700.0,1800.0,1500.0,1000.0,700.0,100.0,700.0,400.0,450.0,50.0,FY21-22,167650.0,550.0,600.0,400.0,350.0,250.0,50.0,250.0,150.0,150.0,50.0,FY22-23,208400.0,700.0,700.0,550.0,400.0,300.0,50.0,300.0,150.0,200.0,50.0,1664750.0,2600.0,1400.0
51,2,Belgrave line,Box Hill,Whitehorse C  ,201.0,FY18-19,20042.0,-37.81922165,145.1214289,3685500.0,12200.0,12600.0,10650.0,6350.0,5050.0,600.0,4000.0,3250.0,3950.0,800.0,FY19-20,675600.0,2200.0,2300.0,1900.0,1300.0,900.0,150.0,1100.0,500.0,450.0,100.0,FY20-21,211900.0,650.0,700.0,600.0,450.0,300.0,50.0,250.0,200.0,150.0,50.0,FY21-22,242300.0,750.0,800.0,650.0,550.0,400.0,50.0,300.0,200.0,200.0,50.0,FY22-23,1110800.0,3500.0,3600.0,3150.0,2300.0,1800.0,650.0,1700.0,750.0,400.0,100.0,5926100.0,7350.0,5150.0
52,1&2,Belgrave line,Union,Boroondara C  ,,,,,,,,,,,,,,,,,,,,,,,,,,,,,,,,,,,,,,,,,,,,,,,,,,,,,,,,,,,,,,,,,,,
53,1&2,Belgrave line,Chatham,Boroondara C  ,64.0,FY18-19,19894.0,-37.82429952,145.0886479,246350.0,850.0,900.0,700.0,350.0,250.0,50.0,500.0,150.0,150.0,50.0,FY19-20,196950.0,700.0,700.0,550.0,300.0,200.0,50.0,400.0,150.0,100.0,50.0,FY20-21,245900.0,800.0,800.0,700.0,450.0,300.0,50.0,400.0,150.0,150.0,50.0,FY21-22,95650.0,300.0,300.0,250.0,200.0,150.0,50.0,150.0,50.0,100.0,50.0,FY22-23,104900.0,350.0,350.0,350.0,200.0,150.0,50.0,150.0,50.0,100.0,50.0,889750.0,1600.0,600.0
54,1&2,Belgrave line,Canterbury,Boroondara C  ,63.0,FY18-19,19893.0,-37.82448518,145.0812242,374650.0,1300.0,1350.0,1050.0,550.0,400.0,100.0,650.0,250.0,350.0,50.0,FY19-20,284700.0,950.0,1000.0,750.0,450.0,350.0,50.0,500.0,200.0,250.0,50.0,FY20-21,80050.0,250.0,250.0,250.0,150.0,100.0,50.0,100.0,50.0,50.0,50.0,FY21-22,145650.0,450.0,500.0,350.0,300.0,250.0,50.0,200.0,100.0,150.0,50.0,FY22-23,160850.0,500.0,500.0,500.0,300.0,250.0,50.0,250.0,100.0,150.0,50.0,1045900.0,1700.0,950.0
55,1,Belgrave line,East Camberwell,Boroondara C  ,62.0,FY18-19,19892.0,-37.82589419,145.0681902,260350.0,950.0,1050.0,550.0,300.0,200.0,50.0,400.0,200.0,400.0,50.0,FY19-20,201450.0,700.0,800.0,400.0,250.0,150.0,50.0,300.0,150.0,300.0,50.0,FY20-21,122400.0,400.0,400.0,350.0,250.0,150.0,50.0,150.0,100.0,150.0,50.0,FY21-22,104900.0,350.0,400.0,200.0,150.0,100.0,50.0,100.0,100.0,200.0,50.0,FY22-23,108800.0,350.0,400.0,250.0,150.0,150.0,50.0,150.0,100.0,150.0,50.0,797900.0,1100.0,1200.0
56,1,Belgrave line,Camberwell,Boroondara C  ,24.0,FY18-19,19853.0,-37.82656714,145.0586972,1969600.0,6250.0,6450.0,5550.0,3800.0,3550.0,200.0,2050.0,1200.0,2550.0,400.0,FY19-20,1496350.0,4850.0,5050.0,4200.0,2650.0,2300.0,150.0,1600.0,1000.0,1950.0,350.0,FY20-21,641150.0,2000.0,2000.0,1900.0,1350.0,1150.0,50.0,500.0,500.0,850.0,150.0,FY21-22,789300.0,2400.0,2550.0,2050.0,1750.0,1500.0,100.0,700.0,600.0,1000.0,200.0,FY22-23,1631400.0,5200.0,5500.0,4050.0,3150.0,2900.0,200.0,1950.0,1250.0,1750.0,300.0,6527800.0,6800.0,8100.0
57,1,Belgrave line,Auburn,Boroondara C  ,73.0,FY18-19,19903.0,-37.82239831,145.0458437,744050.0,2500.0,2600.0,2100.0,1250.0,900.0,100.0,1200.0,550.0,650.0,100.0,FY19-20,584350.0,1950.0,2050.0,1600.0,1050.0,750.0,100.0,950.0,400.0,500.0,100.0,FY20-21,749450.0,2500.0,2650.0,1950.0,1200.0,850.0,50.0,400.0,750.0,1250.0,200.0,FY21-22,331450.0,1050.0,1100.0,850.0,750.0,550.0,50.0,400.0,250.0,300.0,50.0,FY22-23,555400.0,1750.0,1800.0,1500.0,1250.0,950.0,100.0,750.0,400.0,500.0,100.0,2964700.0,3700.0,3200.0
58,1,Belgrave line,Glenferrie,Boroondara C  ,74.0,FY18-19,19904.0,-37.82146682,145.0364388,2729100.0,9800.0,10450.0,7350.0,2950.0,2200.0,200.0,1750.0,2600.0,4850.0,1000.0,FY19-20,1949900.0,6850.0,7450.0,4900.0,2450.0,1650.0,150.0,1300.0,1900.0,3450.0,700.0,FY20-21,243600.0,800.0,850.0,700.0,400.0,300.0,50.0,250.0,200.0,350.0,50.0,FY21-22,1068450.0,3600.0,3950.0,2450.0,1650.0,1200.0,50.0,550.0,1150.0,1850.0,350.0,FY22-23,1747000.0,6050.0,6500.0,4350.0,2400.0,1850.0,100.0,950.0,1800.0,3050.0,600.0,7738050.0,4800.0,13550.0
59,1,Belgrave line,Hawthorn,Boroondara C  ,75.0,FY18-19,19905.0,-37.82182601,145.0228987,709100.0,2500.0,2600.0,2050.0,950.0,700.0,100.0,1050.0,450.0,900.0,100.0,FY19-20,553450.0,1900.0,2050.0,1550.0,750.0,550.0,100.0,800.0,400.0,700.0,50.0,FY20-21,303500.0,850.0,900.0,750.0,1000.0,650.0,50.0,250.0,200.0,350.0,50.0,FY21-22,285900.0,950.0,1000.0,700.0,550.0,400.0,50.0,300.0,200.0,400.0,50.0,FY22-23,469400.0,1550.0,1650.0,1250.0,800.0,650.0,50.0,550.0,350.0,650.0,50.0,2321350.0,2950.0,3000.0
60,1,Belgrave line,Burnley,Yarra C  ,76.0,FY18-19,19906.0,-37.82756022,145.0075551,865300.0,2650.0,2700.0,2550.0,2100.0,1400.0,100.0,1100.0,450.0,900.0,150.0,FY19-20,633700.0,2150.0,2200.0,1950.0,1200.0,650.0,100.0,850.0,350.0,750.0,150.0,FY20-21,198600.0,700.0,700.0,600.0,300.0,200.0,50.0,100.0,100.0,400.0,50.0,FY21-22,455750.0,1250.0,1200.0,1400.0,1700.0,1050.0,50.0,350.0,250.0,450.0,100.0,FY22-23,709000.0,2050.0,1900.0,2700.0,2000.0,1700.0,50.0,600.0,350.0,750.0,150.0,2862350.0,3000.0,3250.0
61,1,Belgrave line,East Richmond,Yarra C  ,77.0,FY18-19,19907.0,-37.82639995,144.9970657,666900.0,2500.0,2600.0,2200.0,500.0,300.0,50.0,400.0,300.0,1650.0,200.0,FY19-20,506300.0,1850.0,1950.0,1600.0,450.0,250.0,50.0,300.0,250.0,1200.0,150.0,FY20-21,99050.0,350.0,450.0,100.0,100.0,50.0,50.0,50.0,100.0,250.0,50.0,FY21-22,251800.0,850.0,900.0,700.0,400.0,250.0,50.0,150.0,150.0,550.0,50.0,FY22-23,457450.0,1600.0,1700.0,1350.0,600.0,400.0,50.0,250.0,250.0,1050.0,150.0,1981500.0,1150.0,4700.0
62,1,Belgrave line,Richmond,Yarra C  ,215.0,FY18-19,19908.0,-37.82407446,144.9901643,4227000.0,11800.0,11850.0,11650.0,12700.0,8950.0,250.0,1700.0,1650.0,5000.0,3250.0,FY19-20,3883350.0,14600.0,15350.0,12100.0,2200.0,1600.0,100.0,650.0,2250.0,10950.0,1400.0,FY20-21,4206700.0,13550.0,13350.0,14150.0,7700.0,5800.0,100.0,550.0,3150.0,7450.0,2050.0,FY21-22,5491300.0,17600.0,18050.0,16050.0,10850.0,7900.0,200.0,850.0,4150.0,9900.0,2900.0,FY22-23,3105850.0,7850.0,8000.0,7300.0,11050.0,8750.0,150.0,850.0,1050.0,3400.0,2550.0,20914200.0,4600.0,36700.0
63,1,Belgrave line,Parliament,Melbourne C  ,213.0,FY18-19,19843.0,-37.81105406,144.9729109,10124200.0,38000.0,39650.0,31600.0,7000.0,4850.0,150.0,1050.0,5300.0,28850.0,4200.0,FY19-20,181900.0,650.0,650.0,550.0,250.0,150.0,150.0,400.0,100.0,50.0,50.0,FY20-21,327900.0,1100.0,1150.0,900.0,600.0,400.0,200.0,550.0,200.0,150.0,50.0,FY21-22,447850.0,1400.0,1500.0,1200.0,900.0,650.0,250.0,750.0,300.0,150.0,50.0,FY22-23,4723950.0,17500.0,18700.0,12750.0,4000.0,2750.0,100.0,850.0,3100.0,12650.0,2050.0,15805800.0,3600.0,41850.0
64,1,Belgrave line,Melbourne Central,Melbourne C  ,212.0,FY18-19,19842.0,-37.80993877,144.9625935,15250700.0,51500.0,53150.0,45000.0,23850.0,18950.0,300.0,1700.0,10400.0,30350.0,10450.0,FY19-20,184700.0,650.0,700.0,500.0,200.0,150.0,100.0,350.0,100.0,150.0,50.0,FY20-21,70900.0,250.0,250.0,200.0,150.0,100.0,50.0,100.0,50.0,50.0,50.0,FY21-22,87950.0,300.0,300.0,250.0,150.0,100.0,50.0,150.0,50.0,50.0,50.0,FY22-23,8626300.0,29000.0,30600.0,22700.0,13700.0,10550.0,250.0,1300.0,7100.0,17050.0,4950.0,24220550.0,3600.0,47650.0
65,1,Belgrave line,Flagstaff,Melbourne C  ,211.0,FY18-19,19841.0,-37.81198131,144.9556538,4854950.0,18500.0,19300.0,15400.0,2600.0,1850.0,100.0,750.0,2600.0,14050.0,1750.0,FY19-20,441650.0,1300.0,1300.0,1300.0,1150.0,900.0,100.0,300.0,400.0,450.0,100.0,FY20-21,103900.0,350.0,400.0,200.0,150.0,100.0,50.0,100.0,50.0,150.0,50.0,FY21-22,115350.0,400.0,450.0,200.0,150.0,100.0,50.0,150.0,50.0,200.0,50.0,FY22-23,2758300.0,10250.0,11000.0,7550.0,2150.0,1550.0,100.0,700.0,2100.0,7150.0,950.0,8274150.0,2000.0,22000.0
66,1,Belgrave line,Southern Cross,Melbourne C  ,218.0,FY18-19,22180.0,-37.81793643,144.9514112,19551450.0,68350.0,70650.0,59550.0,25200.0,19350.0,650.0,3450.0,10750.0,48000.0,7800.0,FY19-20,21503500.0,70500.0,72650.0,63400.0,39400.0,28950.0,1300.0,3950.0,13250.0,42400.0,11750.0,FY20-21,1292650.0,3450.0,3600.0,3050.0,3500.0,3050.0,100.0,450.0,650.0,1550.0,850.0,FY21-22,1966800.0,4650.0,4750.0,4300.0,7350.0,5750.0,100.0,550.0,700.0,2100.0,1250.0,FY22-23,10942400.0,35900.0,37050.0,31400.0,19550.0,16250.0,450.0,2400.0,6750.0,23000.0,4400.0,55256800.0,10800.0,117050.0
67,1,Belgrave line,Flinders Street,Melbourne C  ,214.0,FY18-19,19854.0,-37.81830513,144.9669643,28320650.0,93050.0,94900.0,85900.0,52050.0,38750.0,1900.0,4850.0,16650.0,55250.0,16250.0,FY19-20,527250.0,1800.0,1850.0,1600.0,800.0,500.0,500.0,900.0,250.0,150.0,50.0,FY20-21,1378000.0,5050.0,5200.0,4450.0,1200.0,800.0,100.0,350.0,900.0,3400.0,450.0,FY21-22,1681700.0,6100.0,6450.0,4900.0,1650.0,1100.0,100.0,400.0,1100.0,4300.0,550.0,FY22-23,18793400.0,56800.0,56700.0,57200.0,47800.0,35350.0,1350.0,3300.0,11200.0,29950.0,10900.0,50701000.0,9800.0,93050.0
68,2,Craigieburn line,Craigieburn,Hume C  ,203.0,FY18-19,40221.0,-37.6018169,144.9433203,1236250.0,4100.0,4200.0,3700.0,2150.0,1600.0,800.0,2100.0,800.0,400.0,100.0,FY19-20,2775200.0,9050.0,9400.0,7750.0,5500.0,3700.0,500.0,2950.0,2450.0,2950.0,550.0,FY20-21,240050.0,750.0,850.0,550.0,450.0,300.0,100.0,300.0,200.0,150.0,50.0,FY21-22,280200.0,900.0,900.0,800.0,550.0,400.0,100.0,400.0,200.0,150.0,50.0,FY22-23,331200.0,1150.0,1250.0,800.0,450.0,350.0,200.0,650.0,250.0,100.0,50.0,4862900.0,6400.0,3750.0
69,2,Craigieburn line,Roxburgh Park,Hume C  ,202.0,FY18-19,40220.0,-37.63823121,144.9354037,575000.0,1950.0,2000.0,1800.0,900.0,650.0,350.0,950.0,400.0,250.0,50.0,FY19-20,424600.0,1350.0,1400.0,1200.0,900.0,600.0,100.0,650.0,300.0,300.0,50.0,FY20-21,1192700.0,3750.0,3800.0,3600.0,2450.0,1900.0,200.0,950.0,1100.0,1300.0,250.0,FY21-22,1387500.0,4400.0,4550.0,3850.0,2850.0,2100.0,250.0,1250.0,1250.0,1600.0,300.0,FY22-23,189850.0,650.0,650.0,550.0,350.0,250.0,50.0,300.0,150.0,100.0,50.0,3769650.0,4100.0,3550.0
70,2,Craigieburn line,Coolaroo,Hume C  ,204.0,FY18-19,44817.0,-37.66100253,144.9260556,335750.0,1200.0,1200.0,1100.0,400.0,300.0,150.0,750.0,200.0,100.0,50.0,FY19-20,488650.0,1650.0,1700.0,1450.0,800.0,550.0,300.0,750.0,350.0,250.0,50.0,FY20-21,560500.0,1750.0,1900.0,1250.0,1150.0,850.0,350.0,800.0,450.0,250.0,50.0,FY21-22,696300.0,2200.0,2250.0,1950.0,1550.0,1100.0,450.0,1000.0,500.0,250.0,50.0,FY22-23,309800.0,1050.0,1100.0,900.0,500.0,350.0,250.0,500.0,200.0,100.0,50.0,2391000.0,3800.0,950.0
71,2,Craigieburn line,Broadmeadows,Hume C  ,189.0,FY18-19,20030.0,-37.68304926,144.9196132,953350.0,3100.0,3150.0,2800.0,1800.0,1450.0,250.0,800.0,950.0,1000.0,200.0,FY19-20,154650.0,100.0,150.0,50.0,1700.0,150.0,50.0,50.0,50.0,50.0,50.0,FY20-21,4150.0,50.0,50.0,50.0,50.0,50.0,50.0,50.0,50.0,50.0,50.0,FY21-22,36550.0,50.0,50.0,50.0,400.0,150.0,50.0,50.0,50.0,50.0,50.0,FY22-23,626050.0,2000.0,2050.0,1900.0,1250.0,950.0,250.0,750.0,500.0,400.0,100.0,1774750.0,1700.0,1550.0
72,2,Craigieburn line,Jacana,Hume C  ,190.0,FY18-19,20031.0,-37.69513079,144.9158505,226800.0,700.0,750.0,650.0,450.0,400.0,100.0,350.0,200.0,100.0,50.0,FY19-20,143150.0,300.0,100.0,950.0,500.0,650.0,50.0,50.0,50.0,50.0,50.0,FY20-21,395750.0,1250.0,1350.0,900.0,800.0,600.0,100.0,300.0,400.0,450.0,100.0,FY21-22,447650.0,1400.0,1450.0,1300.0,950.0,700.0,100.0,300.0,400.0,500.0,100.0,FY22-23,368050.0,1150.0,1200.0,1100.0,750.0,600.0,100.0,650.0,250.0,150.0,50.0,1581400.0,1650.0,1250.0
73,1&2,Craigieburn line,Glenroy,Moreland C  ,191.0,FY18-19,20032.0,-37.70453633,144.9172204,1193200.0,3900.0,4000.0,3650.0,2150.0,1650.0,450.0,1850.0,900.0,600.0,150.0,FY19-20,810850.0,2600.0,2750.0,2250.0,1600.0,1200.0,200.0,700.0,850.0,850.0,150.0,FY20-21,129500.0,400.0,400.0,300.0,300.0,250.0,50.0,150.0,100.0,50.0,50.0,FY21-22,133250.0,400.0,400.0,400.0,300.0,250.0,50.0,150.0,100.0,50.0,50.0,FY22-23,422850.0,1350.0,1350.0,1250.0,900.0,650.0,100.0,700.0,250.0,200.0,50.0,2689650.0,3550.0,1750.0
74,1&2,Craigieburn line,Oak Park,Moreland C  ,192.0,FY18-19,20033.0,-37.71794973,144.9215188,555500.0,1850.0,1900.0,1700.0,950.0,700.0,200.0,1100.0,350.0,200.0,50.0,FY19-20,221650.0,700.0,700.0,650.0,450.0,400.0,100.0,350.0,200.0,100.0,50.0,FY20-21,399100.0,1200.0,1300.0,850.0,900.0,700.0,150.0,400.0,400.0,300.0,50.0,FY21-22,317000.0,950.0,900.0,1100.0,750.0,600.0,100.0,250.0,250.0,200.0,50.0,FY22-23,242550.0,800.0,850.0,650.0,450.0,350.0,50.0,450.0,150.0,150.0,50.0,1735800.0,2550.0,950.0
75,1&2,Craigieburn line,Pascoe Vale,Moreland C  ,193.0,FY18-19,20034.0,-37.73075596,144.9281956,657950.0,2200.0,2250.0,2050.0,1100.0,800.0,250.0,1300.0,400.0,250.0,50.0,FY19-20,1037400.0,3350.0,3450.0,3050.0,2000.0,1500.0,400.0,1550.0,850.0,550.0,100.0,FY20-21,218300.0,700.0,750.0,500.0,450.0,350.0,100.0,300.0,200.0,100.0,50.0,FY21-22,237100.0,750.0,750.0,700.0,550.0,400.0,100.0,350.0,150.0,100.0,50.0,FY22-23,216300.0,700.0,700.0,650.0,450.0,350.0,50.0,400.0,150.0,100.0,50.0,2367050.0,3900.0,1100.0
76,1,Craigieburn line,Strathmore,Moonee Valley C  ,194.0,FY18-19,20035.0,-37.74359132,144.9273157,389900.0,1350.0,1400.0,1150.0,550.0,400.0,150.0,800.0,200.0,200.0,50.0,FY19-20,479050.0,1600.0,1650.0,1400.0,850.0,650.0,200.0,900.0,300.0,200.0,50.0,FY20-21,239250.0,750.0,800.0,500.0,500.0,400.0,100.0,350.0,200.0,150.0,50.0,FY21-22,256800.0,800.0,800.0,750.0,600.0,400.0,100.0,350.0,200.0,150.0,50.0,FY22-23,1160200.0,3750.0,3900.0,3100.0,2250.0,1850.0,300.0,1700.0,750.0,1000.0,200.0,2525200.0,4100.0,1700.0
77,1,Craigieburn line,Glenbervie,Moonee Valley C  ,195.0,FY18-19,20036.0,-37.74720985,144.9209387,380800.0,1300.0,1350.0,1200.0,550.0,400.0,150.0,850.0,200.0,100.0,50.0,FY19-20,545050.0,1800.0,1850.0,1600.0,950.0,650.0,200.0,1050.0,350.0,200.0,50.0,FY20-21,130750.0,400.0,450.0,250.0,250.0,150.0,50.0,200.0,100.0,100.0,50.0,FY21-22,151600.0,500.0,500.0,400.0,300.0,200.0,50.0,250.0,100.0,100.0,50.0,FY22-23,648000.0,2000.0,2050.0,1900.0,1550.0,1100.0,100.0,850.0,450.0,500.0,100.0,1856200.0,3200.0,1000.0
78,1,Craigieburn line,Essendon,Moonee Valley C  ,196.0,FY18-19,20037.0,-37.7560117,144.9161975,1480050.0,5050.0,5200.0,4500.0,2300.0,1550.0,500.0,2700.0,850.0,950.0,150.0,FY19-20,318600.0,1100.0,1150.0,900.0,450.0,300.0,100.0,650.0,200.0,150.0,50.0,FY20-21,109700.0,350.0,400.0,250.0,200.0,150.0,50.0,200.0,100.0,50.0,50.0,FY21-22,131350.0,400.0,400.0,400.0,300.0,200.0,50.0,200.0,100.0,50.0,50.0,FY22-23,383400.0,1250.0,1250.0,1100.0,750.0,600.0,100.0,700.0,250.0,200.0,50.0,2423100.0,4450.0,1400.0
79,1,Craigieburn line,Moonee Ponds,Moonee Valley C  ,197.0,FY18-19,20038.0,-37.76570666,144.9191607,858700.0,2850.0,2900.0,2650.0,1600.0,1050.0,200.0,1300.0,600.0,650.0,150.0,FY19-20,301950.0,1050.0,1050.0,900.0,450.0,300.0,100.0,650.0,150.0,100.0,50.0,FY20-21,579150.0,1900.0,1950.0,1550.0,1050.0,750.0,200.0,750.0,400.0,550.0,100.0,FY21-22,723050.0,2300.0,2400.0,1850.0,1600.0,1050.0,200.0,1000.0,500.0,650.0,100.0,FY22-23,496250.0,1550.0,1600.0,1400.0,1100.0,800.0,100.0,700.0,350.0,350.0,100.0,2959100.0,4400.0,2300.0
80,1,Craigieburn line,Ascot Vale,Moonee Valley C  ,198.0,FY18-19,20039.0,-37.77530609,144.9218207,594300.0,2000.0,2050.0,1850.0,950.0,700.0,150.0,1250.0,350.0,250.0,50.0,FY19-20,1298700.0,4300.0,4500.0,3700.0,2350.0,1550.0,500.0,2300.0,750.0,850.0,150.0,FY20-21,362450.0,1100.0,1200.0,900.0,850.0,600.0,50.0,400.0,350.0,300.0,100.0,FY21-22,436200.0,1300.0,1350.0,1250.0,1100.0,750.0,100.0,500.0,350.0,350.0,100.0,FY22-23,368400.0,1150.0,1150.0,1100.0,850.0,600.0,50.0,550.0,250.0,300.0,50.0,3060050.0,5000.0,2050.0
81,1,Craigieburn line,Newmarket,Moonee Valley C  ,199.0,FY18-19,20040.0,-37.78732767,144.9289785,893850.0,3000.0,3100.0,2600.0,1550.0,1100.0,200.0,1550.0,650.0,550.0,150.0,FY19-20,776300.0,2550.0,2650.0,2250.0,1500.0,1000.0,150.0,1150.0,600.0,600.0,150.0,FY20-21,202200.0,650.0,700.0,450.0,400.0,300.0,50.0,300.0,150.0,150.0,50.0,FY21-22,241200.0,750.0,800.0,650.0,550.0,350.0,50.0,400.0,150.0,150.0,50.0,FY22-23,1924250.0,6250.0,6350.0,5800.0,3750.0,2950.0,250.0,1550.0,1650.0,2300.0,500.0,4037800.0,4950.0,3750.0
82,1,Craigieburn line,Kensington,Melbourne C  ,200.0,FY18-19,20041.0,-37.79378022,144.9305244,533050.0,1750.0,1800.0,1550.0,1000.0,750.0,100.0,900.0,400.0,350.0,100.0,FY19-20,488800.0,1650.0,1700.0,1400.0,850.0,600.0,150.0,1000.0,300.0,200.0,50.0,FY20-21,302600.0,950.0,950.0,950.0,600.0,400.0,50.0,350.0,250.0,250.0,50.0,FY21-22,339600.0,1050.0,1100.0,900.0,800.0,550.0,50.0,400.0,300.0,250.0,50.0,FY22-23,433550.0,1400.0,1450.0,1300.0,800.0,600.0,150.0,700.0,300.0,250.0,50.0,2097600.0,3350.0,1300.0
83,1,Craigieburn line,North Melbourne,Melbourne C  ,216.0,FY18-19,19973.0,-37.80630984,144.9415102,1497300.0,4550.0,4700.0,3950.0,3400.0,3350.0,100.0,700.0,950.0,2500.0,450.0,FY19-20,10865600.0,36300.0,38250.0,29850.0,17100.0,13850.0,200.0,1300.0,7850.0,21750.0,7150.0,FY20-21,2213650.0,7900.0,8150.0,7050.0,2350.0,1550.0,50.0,300.0,1600.0,5250.0,950.0,FY21-22,2911250.0,10300.0,10800.0,8400.0,3750.0,2300.0,100.0,450.0,2000.0,7000.0,1300.0,FY22-23,1144850.0,3400.0,3500.0,3100.0,3200.0,2350.0,150.0,550.0,750.0,1700.0,350.0,18632650.0,3300.0,38200.0
84,1,Craigieburn line,Flagstaff,Melbourne C  ,211.0,FY18-19,19841.0,-37.81198131,144.9556538,4854950.0,18500.0,19300.0,15400.0,2600.0,1850.0,100.0,750.0,2600.0,14050.0,1750.0,FY19-20,441650.0,1300.0,1300.0,1300.0,1150.0,900.0,100.0,300.0,400.0,450.0,100.0,FY20-21,103900.0,350.0,400.0,200.0,150.0,100.0,50.0,100.0,50.0,150.0,50.0,FY21-22,115350.0,400.0,450.0,200.0,150.0,100.0,50.0,150.0,50.0,200.0,50.0,FY22-23,2758300.0,10250.0,11000.0,7550.0,2150.0,1550.0,100.0,700.0,2100.0,7150.0,950.0,8274150.0,2000.0,22000.0
85,1,Craigieburn line,Melbourne Central,Melbourne C  ,212.0,FY18-19,19842.0,-37.80993877,144.9625935,15250700.0,51500.0,53150.0,45000.0,23850.0,18950.0,300.0,1700.0,10400.0,30350.0,10450.0,FY19-20,184700.0,650.0,700.0,500.0,200.0,150.0,100.0,350.0,100.0,150.0,50.0,FY20-21,70900.0,250.0,250.0,200.0,150.0,100.0,50.0,100.0,50.0,50.0,50.0,FY21-22,87950.0,300.0,300.0,250.0,150.0,100.0,50.0,150.0,50.0,50.0,50.0,FY22-23,8626300.0,29000.0,30600.0,22700.0,13700.0,10550.0,250.0,1300.0,7100.0,17050.0,4950.0,24220550.0,3600.0,47650.0
86,1,Craigieburn line,Parliament,Melbourne C  ,213.0,FY18-19,19843.0,-37.81105406,144.9729109,10124200.0,38000.0,39650.0,31600.0,7000.0,4850.0,150.0,1050.0,5300.0,28850.0,4200.0,FY19-20,181900.0,650.0,650.0,550.0,250.0,150.0,150.0,400.0,100.0,50.0,50.0,FY20-21,327900.0,1100.0,1150.0,900.0,600.0,400.0,200.0,550.0,200.0,150.0,50.0,FY21-22,447850.0,1400.0,1500.0,1200.0,900.0,650.0,250.0,750.0,300.0,150.0,50.0,FY22-23,4723950.0,17500.0,18700.0,12750.0,4000.0,2750.0,100.0,850.0,3100.0,12650.0,2050.0,15805800.0,3600.0,41850.0
87,1,Craigieburn line,Flinders Street,Melbourne C  ,214.0,FY18-19,19854.0,-37.81830513,144.9669643,28320650.0,93050.0,94900.0,85900.0,52050.0,38750.0,1900.0,4850.0,16650.0,55250.0,16250.0,FY19-20,527250.0,1800.0,1850.0,1600.0,800.0,500.0,500.0,900.0,250.0,150.0,50.0,FY20-21,1378000.0,5050.0,5200.0,4450.0,1200.0,800.0,100.0,350.0,900.0,3400.0,450.0,FY21-22,1681700.0,6100.0,6450.0,4900.0,1650.0,1100.0,100.0,400.0,1100.0,4300.0,550.0,FY22-23,18793400.0,56800.0,56700.0,57200.0,47800.0,35350.0,1350.0,3300.0,11200.0,29950.0,10900.0,50701000.0,9800.0,93050.0
88,1,Craigieburn line,Southern Cross,Melbourne C  ,218.0,FY18-19,22180.0,-37.81793643,144.9514112,19551450.0,68350.0,70650.0,59550.0,25200.0,19350.0,650.0,3450.0,10750.0,48000.0,7800.0,FY19-20,21503500.0,70500.0,72650.0,63400.0,39400.0,28950.0,1300.0,3950.0,13250.0,42400.0,11750.0,FY20-21,1292650.0,3450.0,3600.0,3050.0,3500.0,3050.0,100.0,450.0,650.0,1550.0,850.0,FY21-22,1966800.0,4650.0,4750.0,4300.0,7350.0,5750.0,100.0,550.0,700.0,2100.0,1250.0,FY22-23,10942400.0,35900.0,37050.0,31400.0,19550.0,16250.0,450.0,2400.0,6750.0,23000.0,4400.0,55256800.0,10800.0,117050.0
89,2,Cranbourne line,Cranbourne,Casey C  ,56.0,FY18-19,19886.0,-38.09953731,145.280599,817750.0,2800.0,3000.0,2100.0,1150.0,800.0,800.0,1300.0,550.0,250.0,50.0,FY19-20,773050.0,2600.0,2900.0,1650.0,1200.0,900.0,750.0,1200.0,600.0,250.0,50.0,FY20-21,126750.0,450.0,450.0,350.0,200.0,150.0,100.0,200.0,100.0,50.0,50.0,FY21-22,462300.0,1500.0,1600.0,1150.0,850.0,600.0,400.0,600.0,350.0,200.0,50.0,FY22-23,787600.0,2600.0,2700.0,2150.0,1350.0,1050.0,650.0,1100.0,600.0,300.0,50.0,2967450.0,4400.0,1050.0
90,2,Cranbourne line,Merinda Park,Casey C  ,57.0,FY18-19,19887.0,-38.07900048,145.2635114,306950.0,1100.0,1200.0,750.0,300.0,250.0,250.0,650.0,150.0,50.0,50.0,FY19-20,301600.0,1050.0,1200.0,650.0,350.0,250.0,300.0,650.0,200.0,100.0,50.0,FY20-21,1159900.0,3800.0,3850.0,3500.0,2050.0,1600.0,250.0,850.0,1000.0,1450.0,250.0,FY21-22,183900.0,600.0,650.0,400.0,300.0,200.0,150.0,300.0,150.0,50.0,50.0,FY22-23,397700.0,1350.0,1450.0,1000.0,550.0,400.0,300.0,750.0,250.0,100.0,50.0,2350050.0,3200.0,1750.0
91,2,Cranbourne line,Lynbrook,Casey C  ,205.0,FY18-19,45793.0,-38.05734118,145.2492751,390350.0,1400.0,1500.0,950.0,400.0,300.0,250.0,850.0,250.0,100.0,50.0,FY19-20,1126250.0,3700.0,3850.0,3150.0,2050.0,1450.0,700.0,1900.0,750.0,400.0,100.0,FY20-21,105150.0,350.0,350.0,200.0,200.0,150.0,50.0,150.0,100.0,50.0,50.0,FY21-22,114400.0,350.0,350.0,350.0,250.0,200.0,50.0,150.0,100.0,50.0,50.0,FY22-23,510050.0,1650.0,1650.0,1500.0,1050.0,800.0,200.0,650.0,350.0,350.0,100.0,2246200.0,3700.0,950.0
92,1,Cranbourne line,Dandenong,Greater Dandenong C  ,58.0,FY18-19,19888.0,-37.98996792,145.2097254,2165200.0,7200.0,7350.0,6500.0,3800.0,2750.0,550.0,1950.0,1850.0,2500.0,450.0,FY19-20,1819050.0,6050.0,6350.0,5050.0,3150.0,2300.0,450.0,1550.0,1650.0,2250.0,400.0,FY20-21,158500.0,500.0,500.0,500.0,300.0,250.0,50.0,150.0,150.0,100.0,50.0,FY21-22,1234650.0,3950.0,4200.0,3050.0,2450.0,1850.0,300.0,950.0,1050.0,1600.0,250.0,FY22-23,1738900.0,5700.0,5800.0,5250.0,3350.0,2450.0,400.0,1300.0,1400.0,2200.0,450.0,7116300.0,5900.0,8650.0
93,2,Cranbourne line,Yarraman,Greater Dandenong C  ,59.0,FY18-19,19889.0,-37.97825454,145.1916003,302050.0,1050.0,1100.0,900.0,450.0,300.0,150.0,500.0,250.0,150.0,50.0,FY19-20,283350.0,950.0,1000.0,700.0,450.0,350.0,150.0,450.0,250.0,150.0,50.0,FY20-21,513650.0,1650.0,1700.0,1500.0,950.0,800.0,200.0,500.0,450.0,400.0,100.0,FY21-22,140000.0,450.0,500.0,350.0,250.0,200.0,50.0,150.0,150.0,100.0,50.0,FY22-23,210350.0,700.0,750.0,500.0,400.0,300.0,100.0,300.0,200.0,150.0,50.0,1449400.0,1900.0,950.0
94,2,Cranbourne line,Noble Park,Greater Dandenong C  ,60.0,FY18-19,19890.0,-37.96723193,145.1769357,929900.0,3150.0,3300.0,2450.0,1500.0,1100.0,400.0,1300.0,800.0,700.0,150.0,FY19-20,868350.0,2850.0,3100.0,2100.0,1550.0,1100.0,350.0,1150.0,800.0,650.0,150.0,FY20-21,178800.0,600.0,600.0,550.0,300.0,250.0,50.0,250.0,150.0,100.0,50.0,FY21-22,556700.0,1750.0,1900.0,1350.0,1100.0,850.0,250.0,600.0,500.0,500.0,100.0,FY22-23,816200.0,2650.0,2850.0,1850.0,1550.0,1150.0,300.0,1000.0,700.0,700.0,150.0,3349950.0,4300.0,2650.0
95,2,Cranbourne line,Sandown Park,Greater Dandenong C  ,61.0,FY18-19,19891.0,-37.95650457,145.1628259,537400.0,1900.0,2000.0,1500.0,600.0,450.0,250.0,1250.0,350.0,150.0,50.0,FY19-20,443950.0,1550.0,1700.0,1000.0,600.0,450.0,200.0,1050.0,300.0,150.0,50.0,FY20-21,100800.0,350.0,400.0,200.0,150.0,100.0,50.0,100.0,100.0,200.0,50.0,FY21-22,189600.0,600.0,650.0,450.0,350.0,300.0,50.0,300.0,150.0,100.0,50.0,FY22-23,315850.0,1050.0,1150.0,700.0,550.0,400.0,100.0,650.0,250.0,100.0,50.0,1587600.0,3350.0,700.0
96,2,Cranbourne line,Springvale,Greater Dandenong C  ,82.0,FY18-19,19913.0,-37.94950878,145.1534518,1509450.0,4800.0,5000.0,4000.0,3150.0,2450.0,400.0,1600.0,1400.0,1250.0,300.0,FY19-20,1295050.0,4000.0,4300.0,3100.0,3000.0,2150.0,350.0,1300.0,1250.0,1150.0,250.0,FY20-21,339550.0,1000.0,1000.0,900.0,900.0,700.0,100.0,300.0,250.0,300.0,50.0,FY21-22,750700.0,2300.0,2400.0,1850.0,1700.0,1300.0,200.0,600.0,700.0,750.0,150.0,FY22-23,1162600.0,3600.0,3850.0,2700.0,2650.0,2000.0,250.0,1050.0,1100.0,1150.0,250.0,5057350.0,4850.0,4600.0
97,2,Cranbourne line,Westall,Kingston C  ,83.0,FY18-19,19914.0,-37.93849121,145.1388326,894250.0,2800.0,2900.0,2400.0,1750.0,1700.0,300.0,1200.0,650.0,650.0,100.0,FY19-20,676550.0,1950.0,2100.0,1600.0,2000.0,1400.0,200.0,800.0,450.0,500.0,100.0,FY20-21,796650.0,2500.0,2500.0,2500.0,1600.0,1300.0,150.0,600.0,700.0,850.0,250.0,FY21-22,474400.0,1500.0,1500.0,1650.0,950.0,750.0,150.0,450.0,350.0,450.0,100.0,FY22-23,668350.0,1950.0,1850.0,2300.0,1700.0,1650.0,150.0,650.0,400.0,550.0,150.0,3510200.0,3700.0,3000.0
98,2,Cranbourne line,Clayton,Monash C  ,84.0,FY18-19,19915.0,-37.92468255,145.1205344,1612700.0,5250.0,5650.0,3750.0,3100.0,2400.0,350.0,1700.0,1550.0,1550.0,450.0,FY19-20,1388700.0,4450.0,4850.0,3250.0,2800.0,1950.0,300.0,1500.0,1300.0,1350.0,400.0,FY20-21,556100.0,1950.0,2050.0,1550.0,650.0,450.0,100.0,450.0,500.0,850.0,150.0,FY21-22,853500.0,2700.0,2750.0,2500.0,1800.0,1300.0,200.0,700.0,700.0,900.0,200.0,FY22-23,1209900.0,3900.0,4200.0,2650.0,2550.0,1700.0,300.0,1200.0,1100.0,1300.0,350.0,5620900.0,5550.0,5950.0
99,1&2,Cranbourne line,Huntingdale,Monash C  ,85.0,FY18-19,19916.0,-37.91101734,145.1023643,1592900.0,5800.0,6350.0,3550.0,1500.0,1050.0,350.0,1800.0,1350.0,2400.0,450.0,FY19-20,1151750.0,4100.0,4650.0,2250.0,1150.0,850.0,250.0,1400.0,1000.0,1700.0,300.0,FY20-21,763050.0,2400.0,2450.0,2300.0,1600.0,1150.0,150.0,550.0,650.0,900.0,200.0,FY21-22,666850.0,2350.0,2600.0,1550.0,750.0,500.0,100.0,550.0,600.0,1150.0,200.0,FY22-23,1118800.0,4050.0,4500.0,2100.0,1150.0,750.0,150.0,1050.0,1050.0,1900.0,350.0,5293350.0,5350.0,8050.0
100,1&2,Cranbourne line,Oakleigh,Monash C  ,86.0,FY18-19,19917.0,-37.90037214,145.0883079,1733100.0,5750.0,6200.0,4050.0,3100.0,2250.0,400.0,2100.0,1400.0,1850.0,400.0,FY19-20,1215300.0,3950.0,4400.0,2600.0,2300.0,1600.0,300.0,1350.0,1050.0,1400.0,350.0,FY20-21,250500.0,800.0,800.0,750.0,500.0,350.0,50.0,300.0,200.0,200.0,50.0,FY21-22,836350.0,2650.0,2750.0,2300.0,1750.0,1250.0,150.0,650.0,700.0,1050.0,200.0,FY22-23,1253850.0,4000.0,4300.0,2650.0,2750.0,1800.0,200.0,1200.0,1000.0,1600.0,300.0,5289100.0,5600.0,6100.0
101,1&2,Cranbourne line,Hughesdale,Monash C  ,219.0,FY18-19,19918.0,-37.89488129,145.0776351,443900.0,1500.0,1650.0,850.0,750.0,500.0,100.0,800.0,350.0,300.0,100.0,FY19-20,2965500.0,8600.0,8800.0,7900.0,8450.0,6150.0,200.0,1250.0,1350.0,4150.0,1900.0,FY20-21,669700.0,1950.0,2000.0,1650.0,1950.0,1300.0,50.0,350.0,500.0,950.0,150.0,FY21-22,703500.0,2150.0,2250.0,1850.0,1750.0,1250.0,50.0,350.0,500.0,1100.0,200.0,FY22-23,505450.0,1500.0,1550.0,1300.0,1400.0,1050.0,50.0,450.0,400.0,550.0,100.0,5288050.0,3200.0,7050.0
102,1,Cranbourne line,Murrumbeena,Glen Eira C  ,87.0,FY18-19,19919.0,-37.89019832,145.0673749,779450.0,2650.0,2900.0,1850.0,1200.0,850.0,250.0,1600.0,600.0,350.0,100.0,FY19-20,501050.0,1650.0,1850.0,1000.0,850.0,600.0,150.0,850.0,400.0,350.0,100.0,FY20-21,318600.0,1000.0,1050.0,1000.0,600.0,450.0,100.0,400.0,250.0,200.0,50.0,FY21-22,276350.0,850.0,900.0,750.0,600.0,400.0,50.0,350.0,200.0,250.0,50.0,FY22-23,444600.0,1450.0,1550.0,950.0,900.0,600.0,100.0,700.0,350.0,400.0,50.0,2320050.0,3900.0,1550.0
103,1,Cranbourne line,Carnegie,Glen Eira C  ,88.0,FY18-19,19920.0,-37.88624148,145.0585751,991250.0,3300.0,3550.0,2200.0,1800.0,1350.0,200.0,1700.0,850.0,550.0,300.0,FY19-20,625600.0,2100.0,2350.0,1250.0,1000.0,700.0,200.0,1300.0,500.0,300.0,50.0,FY20-21,460850.0,1450.0,1450.0,1450.0,950.0,750.0,100.0,500.0,400.0,350.0,100.0,FY21-22,351600.0,1150.0,1200.0,950.0,700.0,500.0,100.0,500.0,250.0,250.0,50.0,FY22-23,567900.0,1900.0,2050.0,1250.0,1000.0,700.0,150.0,1050.0,400.0,400.0,50.0,2997200.0,5050.0,1850.0
104,1,Cranbourne line,Caulfield,Glen Eira C  ,111.0,FY18-19,19943.0,-37.87745946,145.0425248,4175050.0,12800.0,13500.0,10050.0,10200.0,7650.0,350.0,2850.0,3350.0,4950.0,2000.0,FY19-20,660200.0,2150.0,2350.0,1400.0,1300.0,900.0,150.0,1100.0,550.0,450.0,100.0,FY20-21,1370650.0,3950.0,4050.0,3700.0,3800.0,2750.0,150.0,900.0,1100.0,1450.0,450.0,FY21-22,342700.0,1050.0,1050.0,900.0,850.0,600.0,50.0,350.0,300.0,250.0,50.0,FY22-23,2668350.0,8150.0,8900.0,5200.0,6000.0,5650.0,250.0,2250.0,2150.0,3050.0,1150.0,9216950.0,7450.0,10150.0
105,1,Cranbourne line,Malvern,Stonnington C  ,112.0,FY18-19,19944.0,-37.8662533,145.0292939,832800.0,2750.0,3000.0,1750.0,1500.0,1200.0,100.0,1150.0,600.0,900.0,200.0,FY19-20,2853200.0,9050.0,9100.0,8850.0,6450.0,4250.0,250.0,2050.0,2300.0,3200.0,1250.0,FY20-21,340300.0,1050.0,1100.0,1000.0,700.0,550.0,50.0,250.0,250.0,450.0,100.0,FY21-22,1874050.0,5500.0,5700.0,4600.0,5400.0,3700.0,200.0,1350.0,1450.0,2050.0,650.0,FY22-23,531650.0,1700.0,1850.0,1000.0,1100.0,850.0,50.0,550.0,450.0,700.0,150.0,6432000.0,5350.0,7300.0
106,1,Cranbourne line,Armadale,Stonnington C  ,113.0,FY18-19,19945.0,-37.85645238,145.0193255,582450.0,1950.0,2150.0,1200.0,1050.0,750.0,100.0,900.0,450.0,600.0,100.0,FY19-20,586650.0,1900.0,2200.0,950.0,1100.0,750.0,100.0,850.0,450.0,700.0,150.0,FY20-21,227300.0,750.0,750.0,650.0,450.0,300.0,50.0,250.0,200.0,250.0,50.0,FY21-22,371100.0,1200.0,1250.0,950.0,750.0,550.0,50.0,300.0,300.0,500.0,100.0,FY22-23,370550.0,1200.0,1350.0,650.0,700.0,500.0,50.0,550.0,300.0,450.0,50.0,2138050.0,2850.0,2500.0
107,1,Cranbourne line,Toorak,Stonnington C  ,114.0,FY18-19,19946.0,-37.85077381,145.0139086,514950.0,1750.0,1950.0,950.0,900.0,600.0,50.0,850.0,400.0,500.0,100.0,FY19-20,414400.0,1350.0,1600.0,650.0,750.0,500.0,50.0,700.0,350.0,450.0,50.0,FY20-21,196650.0,650.0,700.0,500.0,350.0,250.0,50.0,200.0,150.0,250.0,50.0,FY21-22,244650.0,800.0,850.0,600.0,500.0,350.0,50.0,250.0,200.0,300.0,50.0,FY22-23,329150.0,1100.0,1250.0,550.0,600.0,400.0,50.0,450.0,250.0,450.0,50.0,1699800.0,2450.0,1950.0
108,1,Cranbourne line,Hawksburn,Stonnington C  ,115.0,FY18-19,19947.0,-37.84459087,145.0021421,507600.0,1650.0,1800.0,1050.0,1050.0,750.0,100.0,850.0,400.0,350.0,100.0,FY19-20,370450.0,1250.0,1450.0,500.0,650.0,450.0,50.0,650.0,300.0,400.0,50.0,FY20-21,201400.0,600.0,600.0,600.0,450.0,300.0,50.0,200.0,150.0,200.0,50.0,FY21-22,224850.0,750.0,800.0,500.0,450.0,300.0,50.0,250.0,200.0,300.0,50.0,FY22-23,340500.0,1100.0,1200.0,650.0,700.0,500.0,50.0,500.0,250.0,300.0,50.0,1644800.0,2450.0,1550.0
109,1,Cranbourne line,South Yarra,Melbourne C  ,127.0,FY18-19,19959.0,-37.83844935,144.9923422,4367150.0,14500.0,15450.0,10700.0,8050.0,5750.0,450.0,4400.0,3300.0,5950.0,1350.0,FY19-20,951300.0,3200.0,3350.0,2600.0,1600.0,1050.0,100.0,950.0,650.0,1400.0,250.0,FY20-21,1669900.0,5300.0,5500.0,4600.0,3500.0,2400.0,150.0,1050.0,1350.0,2400.0,500.0,FY21-22,571600.0,1800.0,1900.0,1600.0,1300.0,800.0,50.0,400.0,400.0,850.0,150.0,FY22-23,2769550.0,9000.0,9550.0,6850.0,5600.0,3900.0,250.0,2250.0,2250.0,3950.0,850.0,10329500.0,9050.0,14550.0
110,1,Cranbourne line,Richmond,Yarra C  ,215.0,FY18-19,19908.0,-37.82407446,144.9901643,4227000.0,11800.0,11850.0,11650.0,12700.0,8950.0,250.0,1700.0,1650.0,5000.0,3250.0,FY19-20,3883350.0,14600.0,15350.0,12100.0,2200.0,1600.0,100.0,650.0,2250.0,10950.0,1400.0,FY20-21,4206700.0,13550.0,13350.0,14150.0,7700.0,5800.0,100.0,550.0,3150.0,7450.0,2050.0,FY21-22,5491300.0,17600.0,18050.0,16050.0,10850.0,7900.0,200.0,850.0,4150.0,9900.0,2900.0,FY22-23,3105850.0,7850.0,8000.0,7300.0,11050.0,8750.0,150.0,850.0,1050.0,3400.0,2550.0,20914200.0,4600.0,36700.0
111,1,Cranbourne line,Flinders Street,Melbourne C  ,214.0,FY18-19,19854.0,-37.81830513,144.9669643,28320650.0,93050.0,94900.0,85900.0,52050.0,38750.0,1900.0,4850.0,16650.0,55250.0,16250.0,FY19-20,527250.0,1800.0,1850.0,1600.0,800.0,500.0,500.0,900.0,250.0,150.0,50.0,FY20-21,1378000.0,5050.0,5200.0,4450.0,1200.0,800.0,100.0,350.0,900.0,3400.0,450.0,FY21-22,1681700.0,6100.0,6450.0,4900.0,1650.0,1100.0,100.0,400.0,1100.0,4300.0,550.0,FY22-23,18793400.0,56800.0,56700.0,57200.0,47800.0,35350.0,1350.0,3300.0,11200.0,29950.0,10900.0,50701000.0,9800.0,93050.0
112,1,Cranbourne line,Southern Cross,Melbourne C  ,218.0,FY18-19,22180.0,-37.81793643,144.9514112,19551450.0,68350.0,70650.0,59550.0,25200.0,19350.0,650.0,3450.0,10750.0,48000.0,7800.0,FY19-20,21503500.0,70500.0,72650.0,63400.0,39400.0,28950.0,1300.0,3950.0,13250.0,42400.0,11750.0,FY20-21,1292650.0,3450.0,3600.0,3050.0,3500.0,3050.0,100.0,450.0,650.0,1550.0,850.0,FY21-22,1966800.0,4650.0,4750.0,4300.0,7350.0,5750.0,100.0,550.0,700.0,2100.0,1250.0,FY22-23,10942400.0,35900.0,37050.0,31400.0,19550.0,16250.0,450.0,2400.0,6750.0,23000.0,4400.0,55256800.0,10800.0,117050.0
113,1,Cranbourne line,Flagstaff,Melbourne C  ,211.0,FY18-19,19841.0,-37.81198131,144.9556538,4854950.0,18500.0,19300.0,15400.0,2600.0,1850.0,100.0,750.0,2600.0,14050.0,1750.0,FY19-20,441650.0,1300.0,1300.0,1300.0,1150.0,900.0,100.0,300.0,400.0,450.0,100.0,FY20-21,103900.0,350.0,400.0,200.0,150.0,100.0,50.0,100.0,50.0,150.0,50.0,FY21-22,115350.0,400.0,450.0,200.0,150.0,100.0,50.0,150.0,50.0,200.0,50.0,FY22-23,2758300.0,10250.0,11000.0,7550.0,2150.0,1550.0,100.0,700.0,2100.0,7150.0,950.0,8274150.0,2000.0,22000.0
114,1,Cranbourne line,Melbourne Central,Melbourne C  ,212.0,FY18-19,19842.0,-37.80993877,144.9625935,15250700.0,51500.0,53150.0,45000.0,23850.0,18950.0,300.0,1700.0,10400.0,30350.0,10450.0,FY19-20,184700.0,650.0,700.0,500.0,200.0,150.0,100.0,350.0,100.0,150.0,50.0,FY20-21,70900.0,250.0,250.0,200.0,150.0,100.0,50.0,100.0,50.0,50.0,50.0,FY21-22,87950.0,300.0,300.0,250.0,150.0,100.0,50.0,150.0,50.0,50.0,50.0,FY22-23,8626300.0,29000.0,30600.0,22700.0,13700.0,10550.0,250.0,1300.0,7100.0,17050.0,4950.0,24220550.0,3600.0,47650.0
115,1,Cranbourne line,Parliament,Melbourne C  ,213.0,FY18-19,19843.0,-37.81105406,144.9729109,10124200.0,38000.0,39650.0,31600.0,7000.0,4850.0,150.0,1050.0,5300.0,28850.0,4200.0,FY19-20,181900.0,650.0,650.0,550.0,250.0,150.0,150.0,400.0,100.0,50.0,50.0,FY20-21,327900.0,1100.0,1150.0,900.0,600.0,400.0,200.0,550.0,200.0,150.0,50.0,FY21-22,447850.0,1400.0,1500.0,1200.0,900.0,650.0,250.0,750.0,300.0,150.0,50.0,FY22-23,4723950.0,17500.0,18700.0,12750.0,4000.0,2750.0,100.0,850.0,3100.0,12650.0,2050.0,15805800.0,3600.0,41850.0
116,2,Frankston line,Frankston,Frankston C  ,25.0,FY18-19,19855.0,-38.14299007,145.1261623,1296500.0,4000.0,4150.0,3600.0,2900.0,2250.0,750.0,1300.0,1050.0,900.0,150.0,FY19-20,896100.0,2750.0,2850.0,2550.0,2200.0,1350.0,500.0,850.0,750.0,600.0,100.0,FY20-21,576400.0,1700.0,1650.0,1900.0,1500.0,1050.0,200.0,400.0,500.0,400.0,100.0,FY21-22,692750.0,2050.0,2000.0,2200.0,1750.0,1300.0,300.0,550.0,600.0,450.0,100.0,FY22-23,1022400.0,3050.0,3100.0,2850.0,2750.0,1950.0,500.0,750.0,900.0,750.0,150.0,4484150.0,3850.0,3100.0
117,2,Frankston line,Kananook,Frankston C  ,26.0,FY18-19,19856.0,-38.12174203,145.1352953,295900.0,1000.0,1050.0,800.0,450.0,300.0,250.0,450.0,200.0,150.0,50.0,FY19-20,186150.0,650.0,650.0,500.0,300.0,200.0,150.0,300.0,150.0,100.0,50.0,FY20-21,92700.0,300.0,300.0,300.0,200.0,150.0,50.0,100.0,100.0,50.0,50.0,FY21-22,93400.0,300.0,300.0,300.0,150.0,100.0,50.0,100.0,100.0,50.0,50.0,FY22-23,155800.0,500.0,550.0,400.0,300.0,200.0,100.0,200.0,150.0,100.0,50.0,823950.0,1150.0,450.0
118,2,Frankston line,Seaford,Frankston C  ,27.0,FY18-19,19857.0,-38.10402104,145.1282304,374150.0,1250.0,1300.0,1000.0,650.0,450.0,400.0,550.0,200.0,150.0,50.0,FY19-20,317100.0,1050.0,1100.0,850.0,600.0,400.0,300.0,450.0,200.0,100.0,50.0,FY20-21,154500.0,450.0,450.0,500.0,350.0,250.0,100.0,150.0,100.0,50.0,50.0,FY21-22,162550.0,500.0,500.0,500.0,350.0,250.0,100.0,200.0,100.0,50.0,50.0,FY22-23,279000.0,850.0,900.0,700.0,650.0,450.0,150.0,350.0,200.0,150.0,50.0,1287300.0,1700.0,500.0
119,2,Frankston line,Carrum,Kingston C  ,28.0,FY18-19,19858.0,-38.07489292,145.1224183,430400.0,1400.0,1450.0,1100.0,900.0,650.0,250.0,700.0,300.0,200.0,50.0,FY19-20,41600.0,150.0,150.0,100.0,100.0,50.0,50.0,50.0,50.0,50.0,50.0,FY20-21,157950.0,500.0,500.0,450.0,400.0,250.0,50.0,200.0,100.0,50.0,50.0,FY21-22,182150.0,550.0,550.0,500.0,400.0,300.0,100.0,250.0,150.0,100.0,50.0,FY22-23,281800.0,850.0,900.0,700.0,650.0,500.0,150.0,400.0,200.0,150.0,50.0,1093900.0,1600.0,550.0
120,2,Frankston line,Bonbeach,Kingston C  ,29.0,FY18-19,19859.0,-38.06294478,145.1196804,205250.0,700.0,700.0,550.0,350.0,250.0,100.0,400.0,150.0,50.0,50.0,FY19-20,220450.0,700.0,750.0,600.0,400.0,300.0,100.0,400.0,150.0,50.0,50.0,FY20-21,71450.0,200.0,200.0,200.0,150.0,100.0,50.0,100.0,50.0,50.0,50.0,FY21-22,67050.0,200.0,200.0,200.0,150.0,100.0,50.0,100.0,50.0,50.0,50.0,FY22-23,121600.0,350.0,400.0,300.0,300.0,200.0,50.0,200.0,100.0,50.0,50.0,685800.0,1200.0,250.0
121,2,Frankston line,Chelsea,Kingston C  ,30.0,FY18-19,19860.0,-38.05195538,145.1160413,488600.0,1600.0,1650.0,1300.0,950.0,700.0,250.0,800.0,350.0,200.0,50.0,FY19-20,352400.0,1150.0,1200.0,950.0,700.0,450.0,200.0,550.0,250.0,150.0,50.0,FY20-21,186300.0,550.0,550.0,550.0,450.0,300.0,50.0,200.0,150.0,100.0,50.0,FY21-22,161650.0,500.0,500.0,500.0,400.0,250.0,50.0,200.0,150.0,100.0,50.0,FY22-23,316650.0,950.0,1050.0,800.0,750.0,550.0,100.0,450.0,250.0,150.0,50.0,1505600.0,2200.0,700.0
122,2,Frankston line,Edithvale,Kingston C  ,31.0,FY18-19,19861.0,-38.03805602,145.1085355,303950.0,1000.0,1050.0,850.0,550.0,400.0,150.0,550.0,200.0,100.0,50.0,FY19-20,196750.0,650.0,650.0,550.0,400.0,250.0,100.0,350.0,150.0,100.0,50.0,FY20-21,104700.0,300.0,300.0,300.0,250.0,150.0,50.0,150.0,100.0,50.0,50.0,FY21-22,101050.0,300.0,300.0,300.0,250.0,150.0,50.0,150.0,50.0,50.0,50.0,FY22-23,168750.0,500.0,550.0,400.0,400.0,300.0,50.0,300.0,100.0,100.0,50.0,875200.0,1500.0,400.0
123,2,Frankston line,Aspendale,Kingston C  ,32.0,FY18-19,19862.0,-38.02722019,145.1021496,237900.0,800.0,850.0,600.0,400.0,300.0,100.0,450.0,150.0,100.0,50.0,FY19-20,156650.0,500.0,550.0,400.0,300.0,200.0,50.0,300.0,100.0,50.0,50.0,FY20-21,84050.0,250.0,250.0,250.0,200.0,100.0,50.0,100.0,50.0,50.0,50.0,FY21-22,88300.0,300.0,300.0,250.0,200.0,150.0,50.0,150.0,50.0,50.0,50.0,FY22-23,142800.0,450.0,500.0,350.0,300.0,250.0,50.0,250.0,100.0,100.0,50.0,709700.0,1250.0,350.0
124,2,Frankston line,Mordialloc,Kingston C  ,33.0,FY18-19,19863.0,-38.00658295,145.0876594,755550.0,2450.0,2550.0,1950.0,1550.0,1100.0,300.0,1150.0,500.0,550.0,100.0,FY19-20,550700.0,1750.0,1900.0,1300.0,1200.0,800.0,200.0,800.0,400.0,400.0,100.0,FY20-21,339550.0,1050.0,1100.0,900.0,800.0,500.0,100.0,350.0,250.0,300.0,50.0,FY21-22,284900.0,900.0,900.0,750.0,650.0,450.0,100.0,400.0,200.0,200.0,50.0,FY22-23,416750.0,1300.0,1350.0,1000.0,1000.0,750.0,100.0,550.0,300.0,350.0,50.0,2347450.0,3250.0,1800.0
125,2,Frankston line,Parkdale,Kingston C  ,34.0,FY18-19,19864.0,-37.99307882,145.0763268,429250.0,1450.0,1550.0,1050.0,800.0,550.0,150.0,750.0,300.0,300.0,50.0,FY19-20,299300.0,1000.0,1100.0,700.0,550.0,350.0,100.0,500.0,200.0,200.0,50.0,FY20-21,161900.0,500.0,500.0,400.0,400.0,250.0,50.0,150.0,150.0,150.0,50.0,FY21-22,179650.0,550.0,600.0,500.0,400.0,250.0,50.0,200.0,150.0,150.0,50.0,FY22-23,231600.0,750.0,850.0,350.0,500.0,300.0,50.0,300.0,200.0,250.0,50.0,1301700.0,1900.0,1050.0
126,2,Frankston line,Mentone,Kingston C  ,35.0,FY18-19,19865.0,-37.9818654,145.0651659,892150.0,3050.0,3300.0,2050.0,1400.0,1000.0,250.0,1300.0,600.0,1000.0,100.0,FY19-20,528700.0,1800.0,2000.0,1200.0,800.0,500.0,150.0,800.0,400.0,600.0,50.0,FY20-21,362550.0,1200.0,1300.0,800.0,650.0,400.0,50.0,250.0,300.0,650.0,50.0,FY21-22,424350.0,1400.0,1550.0,950.0,750.0,500.0,50.0,350.0,350.0,700.0,50.0,FY22-23,588750.0,2000.0,2250.0,1050.0,950.0,650.0,100.0,550.0,500.0,1000.0,100.0,2796500.0,3250.0,3950.0
127,2,Frankston line,Cheltenham,Bayside C  ,36.0,FY18-19,19866.0,-37.96664989,145.0545579,823400.0,2800.0,2950.0,2050.0,1350.0,1000.0,300.0,1500.0,500.0,600.0,100.0,FY19-20,454850.0,1550.0,1650.0,1150.0,700.0,450.0,150.0,850.0,250.0,350.0,50.0,FY20-21,95700.0,300.0,300.0,300.0,200.0,150.0,50.0,100.0,50.0,50.0,50.0,FY21-22,319800.0,1000.0,1050.0,900.0,650.0,450.0,100.0,450.0,250.0,250.0,50.0,FY22-23,450000.0,1450.0,1600.0,950.0,900.0,600.0,150.0,700.0,300.0,350.0,50.0,2143750.0,3600.0,1600.0
128,2,Frankston line,Southland,Bayside C  ,209.0,FY18-19,52095.0,-37.958758,145.049124,557650.0,1600.0,1600.0,1600.0,1550.0,1300.0,50.0,300.0,500.0,600.0,150.0,FY19-20,554250.0,1850.0,1900.0,1700.0,950.0,600.0,300.0,850.0,350.0,300.0,100.0,FY20-21,411450.0,1400.0,1400.0,1450.0,600.0,400.0,200.0,700.0,300.0,150.0,50.0,FY21-22,633400.0,2150.0,2250.0,1850.0,1000.0,700.0,300.0,1150.0,450.0,250.0,50.0,FY22-23,159150.0,550.0,550.0,450.0,300.0,200.0,100.0,300.0,100.0,50.0,50.0,2315900.0,3300.0,1350.0
129,2,Frankston line,Highett,Bayside C  ,42.0,FY18-19,19872.0,-37.948425,145.0418718,508400.0,1650.0,1750.0,1200.0,1000.0,750.0,150.0,850.0,350.0,300.0,100.0,FY19-20,328050.0,1050.0,1150.0,800.0,650.0,400.0,100.0,550.0,250.0,200.0,50.0,FY20-21,530400.0,1600.0,1600.0,1500.0,1350.0,950.0,100.0,600.0,400.0,350.0,100.0,FY21-22,212700.0,650.0,700.0,600.0,500.0,300.0,50.0,300.0,150.0,150.0,50.0,FY22-23,292800.0,950.0,1000.0,600.0,650.0,450.0,50.0,450.0,250.0,200.0,50.0,1872350.0,2750.0,1200.0
130,2,Frankston line,Moorabbin,Bayside C  ,105.0,FY18-19,19937.0,-37.93435329,145.0367383,717700.0,2350.0,2400.0,2100.0,1350.0,950.0,150.0,850.0,550.0,700.0,150.0,FY19-20,552500.0,1850.0,1950.0,1600.0,900.0,650.0,300.0,1100.0,300.0,200.0,50.0,FY20-21,300700.0,900.0,900.0,950.0,750.0,550.0,50.0,200.0,250.0,300.0,50.0,FY21-22,293550.0,950.0,1000.0,750.0,600.0,400.0,100.0,500.0,200.0,150.0,50.0,FY22-23,492000.0,1650.0,1700.0,1250.0,850.0,650.0,200.0,950.0,300.0,250.0,50.0,2356450.0,3600.0,1600.0
131,2,Frankston line,Patterson,Glen Eira C  ,106.0,FY18-19,19938.0,-37.92514919,145.03547,354250.0,1200.0,1350.0,750.0,550.0,400.0,100.0,700.0,250.0,250.0,50.0,FY19-20,671250.0,2050.0,2250.0,1450.0,1600.0,1250.0,150.0,800.0,550.0,600.0,150.0,FY20-21,127150.0,400.0,450.0,300.0,250.0,150.0,50.0,150.0,100.0,150.0,50.0,FY21-22,322300.0,950.0,1000.0,800.0,850.0,650.0,50.0,250.0,250.0,350.0,50.0,FY22-23,201850.0,650.0,750.0,300.0,400.0,300.0,50.0,350.0,150.0,200.0,50.0,1676800.0,2250.0,1550.0
132,1&2,Frankston line,Bentleigh,Glen Eira C  ,107.0,FY18-19,19939.0,-37.91742457,145.0369951,727900.0,2350.0,2500.0,1700.0,1500.0,1200.0,200.0,1100.0,650.0,450.0,150.0,FY19-20,249700.0,850.0,1000.0,450.0,350.0,250.0,100.0,500.0,150.0,200.0,50.0,FY20-21,299650.0,900.0,900.0,900.0,700.0,550.0,50.0,300.0,300.0,250.0,50.0,FY21-22,144800.0,450.0,500.0,350.0,300.0,200.0,50.0,200.0,100.0,150.0,50.0,FY22-23,415200.0,1300.0,1450.0,700.0,1000.0,750.0,100.0,550.0,400.0,350.0,100.0,1837250.0,2650.0,1400.0
133,1&2,Frankston line,McKinnon,Glen Eira C  ,,,,,,,,,,,,,,,,,,,,,,,,,,,,,,,,,,,,,,,,,,,,,,,,,,,,,,,,,,,,,,,,,,,
134,1&2,Frankston line,Ormond,Glen Eira C  ,109.0,FY18-19,19941.0,-37.90321167,145.0396134,766350.0,2500.0,2750.0,1700.0,1400.0,1100.0,200.0,1250.0,600.0,550.0,100.0,FY19-20,324500.0,1100.0,1200.0,650.0,550.0,400.0,100.0,600.0,250.0,200.0,50.0,FY20-21,265150.0,800.0,850.0,750.0,600.0,450.0,50.0,300.0,200.0,200.0,50.0,FY21-22,196050.0,600.0,600.0,500.0,450.0,350.0,50.0,250.0,150.0,150.0,50.0,FY22-23,379600.0,1200.0,1350.0,650.0,850.0,650.0,50.0,600.0,300.0,300.0,50.0,1931650.0,3000.0,1400.0
135,1,Frankston line,Glen Huntly,Glen Eira C  ,,,,,,,,,,,,,,,,,,,,,,,,,,,,,,,,,,,,,,,,,,,,,,,,,,,,,,,,,,,,,,,,,,,
136,1,Frankston line,Caulfield,Glen Eira C  ,111.0,FY18-19,19943.0,-37.87745946,145.0425248,4175050.0,12800.0,13500.0,10050.0,10200.0,7650.0,350.0,2850.0,3350.0,4950.0,2000.0,FY19-20,660200.0,2150.0,2350.0,1400.0,1300.0,900.0,150.0,1100.0,550.0,450.0,100.0,FY20-21,1370650.0,3950.0,4050.0,3700.0,3800.0,2750.0,150.0,900.0,1100.0,1450.0,450.0,FY21-22,342700.0,1050.0,1050.0,900.0,850.0,600.0,50.0,350.0,300.0,250.0,50.0,FY22-23,2668350.0,8150.0,8900.0,5200.0,6000.0,5650.0,250.0,2250.0,2150.0,3050.0,1150.0,9216950.0,7450.0,10150.0
137,1,Frankston line,Malvern,Stonnington C  ,112.0,FY18-19,19944.0,-37.8662533,145.0292939,832800.0,2750.0,3000.0,1750.0,1500.0,1200.0,100.0,1150.0,600.0,900.0,200.0,FY19-20,2853200.0,9050.0,9100.0,8850.0,6450.0,4250.0,250.0,2050.0,2300.0,3200.0,1250.0,FY20-21,340300.0,1050.0,1100.0,1000.0,700.0,550.0,50.0,250.0,250.0,450.0,100.0,FY21-22,1874050.0,5500.0,5700.0,4600.0,5400.0,3700.0,200.0,1350.0,1450.0,2050.0,650.0,FY22-23,531650.0,1700.0,1850.0,1000.0,1100.0,850.0,50.0,550.0,450.0,700.0,150.0,6432000.0,5350.0,7300.0
138,1,Frankston line,Armadale,Stonnington C  ,113.0,FY18-19,19945.0,-37.85645238,145.0193255,582450.0,1950.0,2150.0,1200.0,1050.0,750.0,100.0,900.0,450.0,600.0,100.0,FY19-20,586650.0,1900.0,2200.0,950.0,1100.0,750.0,100.0,850.0,450.0,700.0,150.0,FY20-21,227300.0,750.0,750.0,650.0,450.0,300.0,50.0,250.0,200.0,250.0,50.0,FY21-22,371100.0,1200.0,1250.0,950.0,750.0,550.0,50.0,300.0,300.0,500.0,100.0,FY22-23,370550.0,1200.0,1350.0,650.0,700.0,500.0,50.0,550.0,300.0,450.0,50.0,2138050.0,2850.0,2500.0
139,1,Frankston line,Toorak,Stonnington C  ,114.0,FY18-19,19946.0,-37.85077381,145.0139086,514950.0,1750.0,1950.0,950.0,900.0,600.0,50.0,850.0,400.0,500.0,100.0,FY19-20,414400.0,1350.0,1600.0,650.0,750.0,500.0,50.0,700.0,350.0,450.0,50.0,FY20-21,196650.0,650.0,700.0,500.0,350.0,250.0,50.0,200.0,150.0,250.0,50.0,FY21-22,244650.0,800.0,850.0,600.0,500.0,350.0,50.0,250.0,200.0,300.0,50.0,FY22-23,329150.0,1100.0,1250.0,550.0,600.0,400.0,50.0,450.0,250.0,450.0,50.0,1699800.0,2450.0,1950.0
140,1,Frankston line,Hawksburn,Stonnington C  ,115.0,FY18-19,19947.0,-37.84459087,145.0021421,507600.0,1650.0,1800.0,1050.0,1050.0,750.0,100.0,850.0,400.0,350.0,100.0,FY19-20,370450.0,1250.0,1450.0,500.0,650.0,450.0,50.0,650.0,300.0,400.0,50.0,FY20-21,201400.0,600.0,600.0,600.0,450.0,300.0,50.0,200.0,150.0,200.0,50.0,FY21-22,224850.0,750.0,800.0,500.0,450.0,300.0,50.0,250.0,200.0,300.0,50.0,FY22-23,340500.0,1100.0,1200.0,650.0,700.0,500.0,50.0,500.0,250.0,300.0,50.0,1644800.0,2450.0,1550.0
141,1,Frankston line,South Yarra,Melbourne C  ,127.0,FY18-19,19959.0,-37.83844935,144.9923422,4367150.0,14500.0,15450.0,10700.0,8050.0,5750.0,450.0,4400.0,3300.0,5950.0,1350.0,FY19-20,951300.0,3200.0,3350.0,2600.0,1600.0,1050.0,100.0,950.0,650.0,1400.0,250.0,FY20-21,1669900.0,5300.0,5500.0,4600.0,3500.0,2400.0,150.0,1050.0,1350.0,2400.0,500.0,FY21-22,571600.0,1800.0,1900.0,1600.0,1300.0,800.0,50.0,400.0,400.0,850.0,150.0,FY22-23,2769550.0,9000.0,9550.0,6850.0,5600.0,3900.0,250.0,2250.0,2250.0,3950.0,850.0,10329500.0,9050.0,14550.0
142,1,Frankston line,Richmond,Yarra C  ,215.0,FY18-19,19908.0,-37.82407446,144.9901643,4227000.0,11800.0,11850.0,11650.0,12700.0,8950.0,250.0,1700.0,1650.0,5000.0,3250.0,FY19-20,3883350.0,14600.0,15350.0,12100.0,2200.0,1600.0,100.0,650.0,2250.0,10950.0,1400.0,FY20-21,4206700.0,13550.0,13350.0,14150.0,7700.0,5800.0,100.0,550.0,3150.0,7450.0,2050.0,FY21-22,5491300.0,17600.0,18050.0,16050.0,10850.0,7900.0,200.0,850.0,4150.0,9900.0,2900.0,FY22-23,3105850.0,7850.0,8000.0,7300.0,11050.0,8750.0,150.0,850.0,1050.0,3400.0,2550.0,20914200.0,4600.0,36700.0
143,1,Frankston line,Flinders Street,Melbourne C  ,214.0,FY18-19,19854.0,-37.81830513,144.9669643,28320650.0,93050.0,94900.0,85900.0,52050.0,38750.0,1900.0,4850.0,16650.0,55250.0,16250.0,FY19-20,527250.0,1800.0,1850.0,1600.0,800.0,500.0,500.0,900.0,250.0,150.0,50.0,FY20-21,1378000.0,5050.0,5200.0,4450.0,1200.0,800.0,100.0,350.0,900.0,3400.0,450.0,FY21-22,1681700.0,6100.0,6450.0,4900.0,1650.0,1100.0,100.0,400.0,1100.0,4300.0,550.0,FY22-23,18793400.0,56800.0,56700.0,57200.0,47800.0,35350.0,1350.0,3300.0,11200.0,29950.0,10900.0,50701000.0,9800.0,93050.0
144,1,Frankston line,Southern Cross,Melbourne C  ,218.0,FY18-19,22180.0,-37.81793643,144.9514112,19551450.0,68350.0,70650.0,59550.0,25200.0,19350.0,650.0,3450.0,10750.0,48000.0,7800.0,FY19-20,21503500.0,70500.0,72650.0,63400.0,39400.0,28950.0,1300.0,3950.0,13250.0,42400.0,11750.0,FY20-21,1292650.0,3450.0,3600.0,3050.0,3500.0,3050.0,100.0,450.0,650.0,1550.0,850.0,FY21-22,1966800.0,4650.0,4750.0,4300.0,7350.0,5750.0,100.0,550.0,700.0,2100.0,1250.0,FY22-23,10942400.0,35900.0,37050.0,31400.0,19550.0,16250.0,450.0,2400.0,6750.0,23000.0,4400.0,55256800.0,10800.0,117050.0
145,1,Frankston line,Flagstaff,Melbourne C  ,211.0,FY18-19,19841.0,-37.81198131,144.9556538,4854950.0,18500.0,19300.0,15400.0,2600.0,1850.0,100.0,750.0,2600.0,14050.0,1750.0,FY19-20,441650.0,1300.0,1300.0,1300.0,1150.0,900.0,100.0,300.0,400.0,450.0,100.0,FY20-21,103900.0,350.0,400.0,200.0,150.0,100.0,50.0,100.0,50.0,150.0,50.0,FY21-22,115350.0,400.0,450.0,200.0,150.0,100.0,50.0,150.0,50.0,200.0,50.0,FY22-23,2758300.0,10250.0,11000.0,7550.0,2150.0,1550.0,100.0,700.0,2100.0,7150.0,950.0,8274150.0,2000.0,22000.0
146,1,Frankston line,Melbourne Central,Melbourne C  ,212.0,FY18-19,19842.0,-37.80993877,144.9625935,15250700.0,51500.0,53150.0,45000.0,23850.0,18950.0,300.0,1700.0,10400.0,30350.0,10450.0,FY19-20,184700.0,650.0,700.0,500.0,200.0,150.0,100.0,350.0,100.0,150.0,50.0,FY20-21,70900.0,250.0,250.0,200.0,150.0,100.0,50.0,100.0,50.0,50.0,50.0,FY21-22,87950.0,300.0,300.0,250.0,150.0,100.0,50.0,150.0,50.0,50.0,50.0,FY22-23,8626300.0,29000.0,30600.0,22700.0,13700.0,10550.0,250.0,1300.0,7100.0,17050.0,4950.0,24220550.0,3600.0,47650.0
147,1,Frankston line,Parliament,Melbourne C  ,213.0,FY18-19,19843.0,-37.81105406,144.9729109,10124200.0,38000.0,39650.0,31600.0,7000.0,4850.0,150.0,1050.0,5300.0,28850.0,4200.0,FY19-20,181900.0,650.0,650.0,550.0,250.0,150.0,150.0,400.0,100.0,50.0,50.0,FY20-21,327900.0,1100.0,1150.0,900.0,600.0,400.0,200.0,550.0,200.0,150.0,50.0,FY21-22,447850.0,1400.0,1500.0,1200.0,900.0,650.0,250.0,750.0,300.0,150.0,50.0,FY22-23,4723950.0,17500.0,18700.0,12750.0,4000.0,2750.0,100.0,850.0,3100.0,12650.0,2050.0,15805800.0,3600.0,41850.0
148,2,Glen Waverley line,Glen Waverley,Monash C  ,43.0,FY18-19,19873.0,-37.87950407,145.1620575,1693350.0,5650.0,5700.0,5500.0,2800.0,2150.0,550.0,2800.0,1150.0,950.0,250.0,FY19-20,1305600.0,4250.0,4300.0,4200.0,2600.0,1700.0,400.0,2100.0,850.0,700.0,200.0,FY20-21,261400.0,850.0,850.0,750.0,550.0,350.0,100.0,400.0,200.0,200.0,50.0,FY21-22,705400.0,2100.0,2150.0,1900.0,1800.0,1350.0,150.0,850.0,500.0,450.0,150.0,FY22-23,1291900.0,3900.0,4000.0,3650.0,3200.0,2500.0,300.0,1750.0,850.0,800.0,250.0,5257650.0,7900.0,3100.0
149,2,Glen Waverley line,Syndal,Monash C  ,44.0,FY18-19,19874.0,-37.87622963,145.1497805,898900.0,3150.0,3200.0,3050.0,1150.0,850.0,550.0,1700.0,450.0,450.0,100.0,FY19-20,708350.0,2450.0,2450.0,2400.0,1050.0,750.0,400.0,1250.0,350.0,350.0,50.0,FY20-21,280350.0,900.0,900.0,750.0,600.0,400.0,50.0,300.0,200.0,300.0,50.0,FY21-22,333650.0,1050.0,1100.0,900.0,700.0,500.0,100.0,550.0,200.0,200.0,50.0,FY22-23,660100.0,2100.0,2150.0,1900.0,1300.0,1100.0,250.0,1200.0,350.0,350.0,50.0,2881350.0,5000.0,1650.0
150,2,Glen Waverley line,Mount Waverley,Monash C  ,45.0,FY18-19,19875.0,-37.87525526,145.1280557,820100.0,2800.0,2900.0,2550.0,1200.0,900.0,250.0,1450.0,500.0,550.0,50.0,FY19-20,662850.0,2200.0,2300.0,2050.0,1100.0,800.0,200.0,1100.0,400.0,450.0,50.0,FY20-21,244300.0,750.0,750.0,750.0,500.0,350.0,100.0,250.0,200.0,200.0,50.0,FY21-22,338200.0,1050.0,1150.0,800.0,750.0,550.0,50.0,450.0,250.0,350.0,50.0,FY22-23,606350.0,1900.0,2000.0,1600.0,1250.0,1050.0,150.0,900.0,400.0,500.0,50.0,2671800.0,4150.0,2050.0
151,2,Glen Waverley line,Jordanville,Monash C  ,14.0,FY18-19,19840.0,-37.87360339,145.1120902,498850.0,1700.0,1750.0,1650.0,700.0,550.0,150.0,1000.0,300.0,200.0,50.0,FY19-20,402000.0,1350.0,1350.0,1350.0,650.0,450.0,150.0,800.0,250.0,150.0,50.0,FY20-21,157850.0,500.0,500.0,450.0,350.0,250.0,50.0,250.0,100.0,100.0,50.0,FY21-22,191000.0,600.0,650.0,500.0,400.0,300.0,50.0,300.0,150.0,100.0,50.0,FY22-23,362950.0,1150.0,1200.0,1050.0,700.0,600.0,100.0,700.0,200.0,150.0,50.0,1612650.0,3050.0,700.0
152,1&2,Glen Waverley line,Holmesglen,Stonnington C  ,13.0,FY18-19,19839.0,-37.87440222,145.090662,531300.0,1800.0,1800.0,1700.0,850.0,600.0,100.0,750.0,450.0,400.0,100.0,FY19-20,439050.0,1450.0,1450.0,1450.0,800.0,600.0,100.0,600.0,350.0,350.0,50.0,FY20-21,187800.0,550.0,600.0,500.0,450.0,300.0,50.0,200.0,200.0,150.0,50.0,FY21-22,216150.0,650.0,700.0,550.0,550.0,400.0,50.0,250.0,150.0,200.0,50.0,FY22-23,371750.0,1150.0,1150.0,1100.0,850.0,700.0,50.0,450.0,300.0,300.0,50.0,1746050.0,2250.0,1400.0
153,1&2,Glen Waverley line,East Malvern,Stonnington C  ,12.0,FY18-19,19838.0,-37.87693002,145.069393,481150.0,1700.0,1600.0,2050.0,600.0,400.0,100.0,1050.0,250.0,150.0,50.0,FY19-20,400500.0,1350.0,1200.0,1800.0,650.0,450.0,100.0,800.0,200.0,150.0,50.0,FY20-21,127600.0,400.0,400.0,350.0,300.0,200.0,50.0,200.0,100.0,100.0,50.0,FY21-22,176600.0,500.0,500.0,450.0,500.0,400.0,50.0,250.0,100.0,100.0,50.0,FY22-23,320100.0,950.0,900.0,1150.0,800.0,700.0,50.0,500.0,150.0,150.0,50.0,1505950.0,2800.0,650.0
154,1&2,Glen Waverley line,Darling,Stonnington C  ,11.0,FY18-19,19837.0,-37.86895684,145.0629508,361300.0,1200.0,1250.0,1150.0,550.0,550.0,50.0,750.0,200.0,150.0,50.0,FY19-20,267750.0,900.0,900.0,900.0,450.0,300.0,50.0,550.0,150.0,100.0,50.0,FY20-21,120400.0,350.0,350.0,250.0,400.0,250.0,50.0,200.0,100.0,50.0,50.0,FY21-22,135200.0,400.0,450.0,350.0,300.0,200.0,50.0,250.0,100.0,100.0,50.0,FY22-23,245850.0,750.0,800.0,700.0,550.0,450.0,50.0,450.0,150.0,150.0,50.0,1130500.0,2200.0,550.0
155,1,Glen Waverley line,Glen Iris,Stonnington C  ,9.0,FY18-19,19835.0,-37.85930842,145.0582249,330100.0,1150.0,1250.0,900.0,450.0,300.0,50.0,600.0,200.0,350.0,50.0,FY19-20,253400.0,850.0,900.0,700.0,400.0,250.0,50.0,450.0,150.0,250.0,50.0,FY20-21,118200.0,400.0,400.0,300.0,250.0,150.0,50.0,150.0,100.0,150.0,50.0,FY21-22,148050.0,450.0,500.0,350.0,300.0,200.0,50.0,200.0,100.0,150.0,50.0,FY22-23,247850.0,800.0,850.0,600.0,500.0,400.0,50.0,350.0,150.0,250.0,50.0,1097600.0,1750.0,1150.0
156,1,Glen Waverley line,Gardiner,Stonnington C  ,81.0,FY18-19,19912.0,-37.85327908,145.0516547,491000.0,1650.0,1650.0,1550.0,800.0,600.0,100.0,900.0,300.0,350.0,50.0,FY19-20,389800.0,1300.0,1300.0,1200.0,750.0,500.0,100.0,700.0,250.0,250.0,50.0,FY20-21,754300.0,2300.0,2300.0,2250.0,1650.0,1350.0,150.0,600.0,700.0,700.0,150.0,FY21-22,198550.0,600.0,600.0,500.0,500.0,400.0,50.0,250.0,100.0,150.0,50.0,FY22-23,352450.0,1050.0,1050.0,950.0,900.0,750.0,50.0,500.0,200.0,250.0,50.0,2186100.0,2950.0,1700.0
157,1,Glen Waverley line,Tooronga,Stonnington C  ,80.0,FY18-19,19911.0,-37.84936553,145.0417337,580300.0,2050.0,2100.0,1850.0,650.0,500.0,100.0,850.0,350.0,750.0,100.0,FY19-20,456150.0,1600.0,1650.0,1450.0,600.0,400.0,100.0,650.0,250.0,600.0,50.0,FY20-21,157650.0,500.0,500.0,450.0,400.0,300.0,50.0,200.0,100.0,100.0,50.0,FY21-22,228050.0,750.0,750.0,600.0,450.0,350.0,50.0,300.0,150.0,250.0,50.0,FY22-23,415900.0,1350.0,1400.0,1150.0,750.0,650.0,50.0,550.0,250.0,500.0,50.0,1838050.0,2550.0,2200.0
158,1,Glen Waverley line,Kooyong,Stonnington C  ,79.0,FY18-19,19910.0,-37.83992894,145.0335516,344750.0,1250.0,1250.0,1150.0,400.0,300.0,50.0,400.0,300.0,450.0,50.0,FY19-20,263150.0,900.0,950.0,850.0,350.0,250.0,50.0,300.0,250.0,300.0,50.0,FY20-21,176050.0,550.0,600.0,500.0,350.0,250.0,50.0,200.0,150.0,200.0,50.0,FY21-22,132800.0,400.0,450.0,300.0,250.0,200.0,50.0,150.0,100.0,200.0,50.0,FY22-23,238100.0,750.0,800.0,650.0,450.0,350.0,50.0,250.0,200.0,300.0,50.0,1154850.0,1300.0,1450.0
159,1,Glen Waverley line,Heyington,Stonnington C  ,78.0,FY18-19,19909.0,-37.83467244,145.0226353,218650.0,800.0,900.0,350.0,200.0,150.0,50.0,250.0,150.0,500.0,50.0,FY19-20,163100.0,600.0,700.0,250.0,150.0,100.0,50.0,200.0,100.0,350.0,50.0,FY20-21,102400.0,350.0,350.0,250.0,200.0,150.0,50.0,100.0,100.0,150.0,50.0,FY21-22,120750.0,450.0,500.0,150.0,100.0,100.0,50.0,100.0,100.0,300.0,50.0,FY22-23,182150.0,650.0,750.0,250.0,200.0,150.0,50.0,150.0,100.0,450.0,50.0,787050.0,800.0,1750.0
160,1,Glen Waverley line,Burnley,Yarra C  ,76.0,FY18-19,19906.0,-37.82756022,145.0075551,865300.0,2650.0,2700.0,2550.0,2100.0,1400.0,100.0,1100.0,450.0,900.0,150.0,FY19-20,633700.0,2150.0,2200.0,1950.0,1200.0,650.0,100.0,850.0,350.0,750.0,150.0,FY20-21,198600.0,700.0,700.0,600.0,300.0,200.0,50.0,100.0,100.0,400.0,50.0,FY21-22,455750.0,1250.0,1200.0,1400.0,1700.0,1050.0,50.0,350.0,250.0,450.0,100.0,FY22-23,709000.0,2050.0,1900.0,2700.0,2000.0,1700.0,50.0,600.0,350.0,750.0,150.0,2862350.0,3000.0,3250.0
161,1,Glen Waverley line,East Richmond,Yarra C  ,77.0,FY18-19,19907.0,-37.82639995,144.9970657,666900.0,2500.0,2600.0,2200.0,500.0,300.0,50.0,400.0,300.0,1650.0,200.0,FY19-20,506300.0,1850.0,1950.0,1600.0,450.0,250.0,50.0,300.0,250.0,1200.0,150.0,FY20-21,99050.0,350.0,450.0,100.0,100.0,50.0,50.0,50.0,100.0,250.0,50.0,FY21-22,251800.0,850.0,900.0,700.0,400.0,250.0,50.0,150.0,150.0,550.0,50.0,FY22-23,457450.0,1600.0,1700.0,1350.0,600.0,400.0,50.0,250.0,250.0,1050.0,150.0,1981500.0,1150.0,4700.0
162,1,Glen Waverley line,Richmond,Yarra C  ,215.0,FY18-19,19908.0,-37.82407446,144.9901643,4227000.0,11800.0,11850.0,11650.0,12700.0,8950.0,250.0,1700.0,1650.0,5000.0,3250.0,FY19-20,3883350.0,14600.0,15350.0,12100.0,2200.0,1600.0,100.0,650.0,2250.0,10950.0,1400.0,FY20-21,4206700.0,13550.0,13350.0,14150.0,7700.0,5800.0,100.0,550.0,3150.0,7450.0,2050.0,FY21-22,5491300.0,17600.0,18050.0,16050.0,10850.0,7900.0,200.0,850.0,4150.0,9900.0,2900.0,FY22-23,3105850.0,7850.0,8000.0,7300.0,11050.0,8750.0,150.0,850.0,1050.0,3400.0,2550.0,20914200.0,4600.0,36700.0
163,1,Glen Waverley line,Flinders Street,Melbourne C  ,214.0,FY18-19,19854.0,-37.81830513,144.9669643,28320650.0,93050.0,94900.0,85900.0,52050.0,38750.0,1900.0,4850.0,16650.0,55250.0,16250.0,FY19-20,527250.0,1800.0,1850.0,1600.0,800.0,500.0,500.0,900.0,250.0,150.0,50.0,FY20-21,1378000.0,5050.0,5200.0,4450.0,1200.0,800.0,100.0,350.0,900.0,3400.0,450.0,FY21-22,1681700.0,6100.0,6450.0,4900.0,1650.0,1100.0,100.0,400.0,1100.0,4300.0,550.0,FY22-23,18793400.0,56800.0,56700.0,57200.0,47800.0,35350.0,1350.0,3300.0,11200.0,29950.0,10900.0,50701000.0,9800.0,93050.0
164,1,Glen Waverley line,Southern Cross,Melbourne C  ,218.0,FY18-19,22180.0,-37.81793643,144.9514112,19551450.0,68350.0,70650.0,59550.0,25200.0,19350.0,650.0,3450.0,10750.0,48000.0,7800.0,FY19-20,21503500.0,70500.0,72650.0,63400.0,39400.0,28950.0,1300.0,3950.0,13250.0,42400.0,11750.0,FY20-21,1292650.0,3450.0,3600.0,3050.0,3500.0,3050.0,100.0,450.0,650.0,1550.0,850.0,FY21-22,1966800.0,4650.0,4750.0,4300.0,7350.0,5750.0,100.0,550.0,700.0,2100.0,1250.0,FY22-23,10942400.0,35900.0,37050.0,31400.0,19550.0,16250.0,450.0,2400.0,6750.0,23000.0,4400.0,55256800.0,10800.0,117050.0
165,1,Glen Waverley line,Flagstaff,Melbourne C  ,211.0,FY18-19,19841.0,-37.81198131,144.9556538,4854950.0,18500.0,19300.0,15400.0,2600.0,1850.0,100.0,750.0,2600.0,14050.0,1750.0,FY19-20,441650.0,1300.0,1300.0,1300.0,1150.0,900.0,100.0,300.0,400.0,450.0,100.0,FY20-21,103900.0,350.0,400.0,200.0,150.0,100.0,50.0,100.0,50.0,150.0,50.0,FY21-22,115350.0,400.0,450.0,200.0,150.0,100.0,50.0,150.0,50.0,200.0,50.0,FY22-23,2758300.0,10250.0,11000.0,7550.0,2150.0,1550.0,100.0,700.0,2100.0,7150.0,950.0,8274150.0,2000.0,22000.0
166,1,Glen Waverley line,Melbourne Central,Melbourne C  ,212.0,FY18-19,19842.0,-37.80993877,144.9625935,15250700.0,51500.0,53150.0,45000.0,23850.0,18950.0,300.0,1700.0,10400.0,30350.0,10450.0,FY19-20,184700.0,650.0,700.0,500.0,200.0,150.0,100.0,350.0,100.0,150.0,50.0,FY20-21,70900.0,250.0,250.0,200.0,150.0,100.0,50.0,100.0,50.0,50.0,50.0,FY21-22,87950.0,300.0,300.0,250.0,150.0,100.0,50.0,150.0,50.0,50.0,50.0,FY22-23,8626300.0,29000.0,30600.0,22700.0,13700.0,10550.0,250.0,1300.0,7100.0,17050.0,4950.0,24220550.0,3600.0,47650.0
167,1,Glen Waverley line,Parliament,Melbourne C  ,213.0,FY18-19,19843.0,-37.81105406,144.9729109,10124200.0,38000.0,39650.0,31600.0,7000.0,4850.0,150.0,1050.0,5300.0,28850.0,4200.0,FY19-20,181900.0,650.0,650.0,550.0,250.0,150.0,150.0,400.0,100.0,50.0,50.0,FY20-21,327900.0,1100.0,1150.0,900.0,600.0,400.0,200.0,550.0,200.0,150.0,50.0,FY21-22,447850.0,1400.0,1500.0,1200.0,900.0,650.0,250.0,750.0,300.0,150.0,50.0,FY22-23,4723950.0,17500.0,18700.0,12750.0,4000.0,2750.0,100.0,850.0,3100.0,12650.0,2050.0,15805800.0,3600.0,41850.0
168,2,Hurstbridge line,Hurstbridge,Nillumbik S  ,153.0,FY18-19,19990.0,-37.63939817,145.1920169,123150.0,400.0,450.0,350.0,200.0,150.0,100.0,250.0,50.0,50.0,50.0,FY19-20,35850.0,100.0,150.0,100.0,50.0,50.0,50.0,100.0,50.0,50.0,50.0,FY20-21,50350.0,150.0,150.0,100.0,100.0,50.0,50.0,100.0,50.0,50.0,50.0,FY21-22,17550.0,50.0,50.0,50.0,50.0,50.0,50.0,50.0,50.0,50.0,50.0,FY22-23,67900.0,200.0,200.0,150.0,150.0,150.0,50.0,100.0,50.0,50.0,50.0,294800.0,600.0,250.0
169,2,Hurstbridge line,Wattle Glen,Nillumbik S  ,152.0,FY18-19,19989.0,-37.66396792,145.1816145,48050.0,150.0,200.0,150.0,50.0,50.0,50.0,100.0,50.0,50.0,50.0,FY19-20,151700.0,500.0,550.0,400.0,300.0,200.0,100.0,300.0,100.0,50.0,50.0,FY20-21,16600.0,50.0,50.0,50.0,50.0,50.0,50.0,50.0,50.0,50.0,50.0,FY21-22,83600.0,250.0,300.0,200.0,200.0,150.0,50.0,150.0,50.0,50.0,50.0,FY22-23,20800.0,50.0,50.0,50.0,50.0,50.0,50.0,50.0,50.0,50.0,50.0,320750.0,650.0,250.0
170,2,Hurstbridge line,Diamond Creek,Nillumbik S  ,151.0,FY18-19,19988.0,-37.67329744,145.1585062,177250.0,600.0,650.0,500.0,300.0,200.0,150.0,350.0,100.0,50.0,50.0,FY19-20,461400.0,1550.0,1650.0,1250.0,750.0,550.0,300.0,800.0,250.0,250.0,50.0,FY20-21,72850.0,250.0,250.0,200.0,150.0,100.0,50.0,100.0,50.0,50.0,50.0,FY21-22,250100.0,800.0,850.0,600.0,550.0,350.0,100.0,350.0,150.0,200.0,50.0,FY22-23,99200.0,300.0,350.0,250.0,200.0,150.0,50.0,200.0,50.0,50.0,50.0,1060800.0,1800.0,600.0
171,2,Hurstbridge line,Eltham,Banyule C  ,150.0,FY18-19,19987.0,-37.71354967,145.147822,588850.0,2050.0,2150.0,1650.0,850.0,600.0,400.0,1050.0,300.0,350.0,50.0,FY19-20,254100.0,850.0,900.0,700.0,400.0,250.0,150.0,550.0,100.0,100.0,50.0,FY20-21,206900.0,650.0,700.0,550.0,400.0,250.0,100.0,250.0,150.0,200.0,50.0,FY21-22,117950.0,400.0,400.0,300.0,250.0,150.0,50.0,200.0,100.0,50.0,50.0,FY22-23,316700.0,1050.0,1100.0,700.0,600.0,500.0,150.0,550.0,200.0,200.0,50.0,1484500.0,2600.0,900.0
172,2,Hurstbridge line,Montmorency,Banyule C  ,149.0,FY18-19,19986.0,-37.71529624,145.1215157,322350.0,1100.0,1200.0,900.0,450.0,300.0,200.0,700.0,150.0,150.0,50.0,FY19-20,588050.0,1900.0,2000.0,1650.0,1200.0,800.0,350.0,950.0,350.0,300.0,50.0,FY20-21,103450.0,350.0,350.0,300.0,200.0,150.0,50.0,150.0,50.0,50.0,50.0,FY21-22,266050.0,850.0,850.0,700.0,600.0,400.0,100.0,350.0,200.0,200.0,50.0,FY22-23,147500.0,500.0,500.0,350.0,300.0,200.0,50.0,300.0,100.0,50.0,50.0,1427400.0,2450.0,750.0
173,2,Hurstbridge line,Greensborough,Banyule C  ,148.0,FY18-19,19985.0,-37.70395408,145.1082474,728850.0,2450.0,2500.0,2200.0,1200.0,850.0,450.0,1250.0,400.0,350.0,50.0,FY19-20,577000.0,1950.0,2050.0,1600.0,1000.0,650.0,400.0,1100.0,250.0,200.0,50.0,FY20-21,254900.0,800.0,800.0,800.0,500.0,350.0,100.0,300.0,200.0,150.0,50.0,FY21-22,303800.0,950.0,1050.0,750.0,650.0,450.0,150.0,500.0,200.0,150.0,50.0,FY22-23,319400.0,1000.0,1100.0,750.0,650.0,500.0,150.0,500.0,200.0,200.0,50.0,2183950.0,3650.0,1050.0
174,2,Hurstbridge line,Watsonia,Banyule C  ,147.0,FY18-19,19984.0,-37.71095798,145.0837934,715500.0,2450.0,2550.0,2150.0,1050.0,700.0,450.0,1450.0,300.0,250.0,50.0,FY19-20,469500.0,1600.0,1700.0,1300.0,750.0,550.0,200.0,850.0,300.0,300.0,50.0,FY20-21,242150.0,800.0,800.0,650.0,450.0,300.0,150.0,400.0,150.0,150.0,50.0,FY21-22,239150.0,800.0,850.0,550.0,500.0,350.0,100.0,350.0,200.0,200.0,50.0,FY22-23,388050.0,1250.0,1350.0,900.0,750.0,600.0,200.0,750.0,200.0,200.0,50.0,2054350.0,3800.0,1100.0
175,2,Hurstbridge line,Macleod,Banyule C  ,146.0,FY18-19,19983.0,-37.7260123,145.0691433,598600.0,2100.0,2200.0,1750.0,800.0,550.0,250.0,1150.0,350.0,350.0,50.0,FY19-20,436500.0,1450.0,1500.0,1250.0,800.0,550.0,50.0,350.0,350.0,650.0,150.0,FY20-21,204450.0,650.0,700.0,550.0,400.0,300.0,50.0,300.0,150.0,150.0,50.0,FY21-22,271450.0,900.0,950.0,750.0,500.0,300.0,50.0,150.0,200.0,500.0,100.0,FY22-23,441450.0,1450.0,1550.0,1150.0,700.0,550.0,150.0,800.0,300.0,300.0,50.0,1952450.0,2750.0,1950.0
176,2,Hurstbridge line,Rosanna,Banyule C  ,104.0,FY18-19,19936.0,-37.7428786,145.0661403,627150.0,2150.0,2250.0,1850.0,900.0,650.0,300.0,1300.0,350.0,200.0,50.0,FY19-20,647000.0,2200.0,2350.0,1750.0,950.0,750.0,150.0,700.0,500.0,900.0,100.0,FY20-21,239200.0,750.0,800.0,700.0,450.0,350.0,100.0,350.0,150.0,100.0,50.0,FY21-22,384400.0,1250.0,1350.0,950.0,700.0,500.0,50.0,300.0,300.0,650.0,100.0,FY22-23,605950.0,1950.0,2050.0,1550.0,1200.0,950.0,100.0,550.0,400.0,950.0,100.0,2503700.0,3200.0,2800.0
177,1&2,Hurstbridge line,Heidelberg,Banyule C  ,103.0,FY18-19,19935.0,-37.75707293,145.0606855,791600.0,2750.0,2900.0,2200.0,1050.0,800.0,200.0,900.0,600.0,1100.0,150.0,FY19-20,128000.0,450.0,450.0,350.0,250.0,150.0,50.0,250.0,100.0,50.0,50.0,FY20-21,343900.0,1150.0,1200.0,950.0,600.0,450.0,50.0,250.0,250.0,550.0,50.0,FY21-22,58550.0,200.0,200.0,150.0,150.0,100.0,50.0,100.0,50.0,50.0,50.0,FY22-23,99350.0,300.0,350.0,250.0,200.0,200.0,50.0,200.0,50.0,50.0,50.0,1421400.0,1700.0,1800.0
178,1&2,Hurstbridge line,Eaglemont,Banyule C  ,102.0,FY18-19,19934.0,-37.76358553,145.0539427,164500.0,550.0,600.0,500.0,250.0,150.0,50.0,350.0,100.0,50.0,50.0,FY19-20,604100.0,2050.0,2150.0,1650.0,1050.0,700.0,200.0,1100.0,350.0,450.0,50.0,FY20-21,50550.0,150.0,150.0,150.0,100.0,100.0,50.0,100.0,50.0,50.0,50.0,FY21-22,319750.0,1050.0,1100.0,800.0,650.0,450.0,50.0,450.0,200.0,300.0,50.0,FY22-23,537800.0,1750.0,1900.0,1250.0,1000.0,800.0,100.0,900.0,300.0,500.0,50.0,1676700.0,2900.0,1350.0
179,1&2,Hurstbridge line,Ivanhoe,Banyule C  ,101.0,FY18-19,19933.0,-37.76889674,145.0454252,781000.0,2700.0,2850.0,2200.0,1150.0,750.0,250.0,1450.0,450.0,600.0,100.0,FY19-20,118850.0,400.0,450.0,300.0,200.0,150.0,50.0,200.0,100.0,100.0,50.0,FY20-21,273050.0,900.0,950.0,750.0,500.0,350.0,50.0,350.0,200.0,300.0,50.0,FY21-22,60500.0,200.0,200.0,100.0,100.0,100.0,50.0,50.0,50.0,100.0,50.0,FY22-23,95550.0,300.0,350.0,200.0,200.0,150.0,50.0,150.0,50.0,100.0,50.0,1328950.0,2200.0,1200.0
180,1,Hurstbridge line,Darebin,Banyule C  ,100.0,FY18-19,19932.0,-37.77496341,145.038476,150400.0,550.0,550.0,400.0,200.0,150.0,50.0,300.0,100.0,100.0,50.0,FY19-20,239400.0,800.0,850.0,650.0,400.0,300.0,50.0,450.0,150.0,150.0,50.0,FY20-21,53850.0,150.0,200.0,100.0,100.0,50.0,50.0,50.0,50.0,50.0,50.0,FY21-22,129950.0,400.0,450.0,300.0,300.0,200.0,50.0,200.0,100.0,100.0,50.0,FY22-23,216150.0,700.0,750.0,500.0,450.0,350.0,50.0,350.0,150.0,150.0,50.0,789750.0,1350.0,550.0
181,1,Hurstbridge line,Alphington,Darebin C  ,99.0,FY18-19,19931.0,-37.77839363,145.0312549,296900.0,1050.0,1100.0,800.0,400.0,300.0,50.0,600.0,200.0,200.0,50.0,FY19-20,509000.0,1650.0,1700.0,1450.0,1000.0,700.0,150.0,900.0,350.0,250.0,100.0,FY20-21,109600.0,350.0,350.0,300.0,200.0,150.0,50.0,150.0,100.0,100.0,50.0,FY21-22,262300.0,800.0,850.0,650.0,600.0,450.0,50.0,350.0,200.0,200.0,50.0,FY22-23,406550.0,1250.0,1350.0,950.0,900.0,750.0,50.0,650.0,250.0,300.0,50.0,1584350.0,2650.0,1050.0
182,1,Hurstbridge line,Fairfield,Darebin C  ,98.0,FY18-19,19930.0,-37.77917126,145.0169053,616150.0,2050.0,2150.0,1800.0,1050.0,750.0,150.0,1150.0,400.0,350.0,100.0,FY19-20,305550.0,1050.0,1100.0,850.0,500.0,350.0,50.0,700.0,200.0,150.0,50.0,FY20-21,233400.0,700.0,750.0,700.0,500.0,400.0,50.0,300.0,200.0,150.0,50.0,FY21-22,140800.0,450.0,500.0,350.0,300.0,200.0,50.0,250.0,100.0,100.0,50.0,FY22-23,223750.0,750.0,800.0,550.0,450.0,300.0,50.0,450.0,150.0,150.0,50.0,1519650.0,2850.0,900.0
183,1,Hurstbridge line,Dennis,Darebin C  ,97.0,FY18-19,19929.0,-37.77918729,145.0082416,389350.0,1350.0,1400.0,1150.0,550.0,400.0,100.0,900.0,200.0,150.0,50.0,FY19-20,227000.0,750.0,750.0,600.0,450.0,300.0,50.0,400.0,150.0,100.0,50.0,FY20-21,118700.0,400.0,400.0,350.0,250.0,150.0,50.0,200.0,100.0,50.0,50.0,FY21-22,124700.0,400.0,400.0,300.0,300.0,200.0,50.0,200.0,100.0,100.0,50.0,FY22-23,182000.0,550.0,600.0,400.0,400.0,300.0,50.0,300.0,100.0,100.0,50.0,1041750.0,2000.0,500.0
184,1,Hurstbridge line,Westgarth,Darebin C  ,96.0,FY18-19,19928.0,-37.7806207,144.9992332,298000.0,1000.0,1000.0,850.0,550.0,400.0,50.0,550.0,200.0,150.0,50.0,FY19-20,89300.0,300.0,300.0,250.0,150.0,150.0,50.0,150.0,50.0,50.0,50.0,FY20-21,108300.0,350.0,350.0,300.0,250.0,150.0,50.0,150.0,100.0,100.0,50.0,FY21-22,49550.0,150.0,150.0,150.0,150.0,100.0,50.0,50.0,50.0,50.0,50.0,FY22-23,79350.0,250.0,250.0,200.0,200.0,150.0,50.0,100.0,50.0,50.0,50.0,624500.0,1000.0,400.0
185,1,Hurstbridge line,Clifton Hill,Yarra C  ,141.0,FY18-19,19974.0,-37.78865745,144.9954167,990100.0,2850.0,2950.0,2650.0,2900.0,2050.0,150.0,1250.0,650.0,700.0,200.0,FY19-20,249450.0,850.0,900.0,700.0,400.0,250.0,50.0,150.0,200.0,400.0,50.0,FY20-21,347000.0,1000.0,1050.0,950.0,900.0,700.0,50.0,350.0,250.0,300.0,100.0,FY21-22,126350.0,400.0,400.0,350.0,250.0,200.0,50.0,50.0,100.0,200.0,50.0,FY22-23,716900.0,2000.0,2050.0,1900.0,2050.0,1850.0,100.0,750.0,450.0,600.0,150.0,2429800.0,2550.0,2200.0
186,1,Hurstbridge line,Victoria Park,Yarra C  ,142.0,FY18-19,19975.0,-37.79915782,144.9944514,757700.0,2500.0,2600.0,2250.0,1350.0,1000.0,100.0,750.0,450.0,1100.0,200.0,FY19-20,709000.0,2250.0,2350.0,1950.0,1600.0,1100.0,100.0,1000.0,500.0,500.0,150.0,FY20-21,277400.0,850.0,850.0,800.0,700.0,450.0,50.0,200.0,200.0,350.0,100.0,FY21-22,454200.0,1300.0,1350.0,1100.0,1350.0,950.0,50.0,500.0,300.0,400.0,100.0,FY22-23,529400.0,1650.0,1700.0,1400.0,1250.0,950.0,50.0,450.0,300.0,750.0,150.0,2727700.0,2900.0,3100.0
187,1,Hurstbridge line,Collingwood,Yarra C  ,143.0,FY18-19,19976.0,-37.80452593,144.9937497,564450.0,1900.0,2000.0,1550.0,950.0,650.0,50.0,400.0,350.0,1050.0,150.0,FY19-20,612450.0,2000.0,2100.0,1750.0,1100.0,850.0,50.0,700.0,400.0,800.0,150.0,FY20-21,221100.0,750.0,750.0,650.0,400.0,250.0,50.0,100.0,150.0,400.0,50.0,FY21-22,317800.0,950.0,1000.0,800.0,800.0,550.0,50.0,250.0,200.0,450.0,100.0,FY22-23,413050.0,1350.0,1400.0,1100.0,800.0,550.0,50.0,250.0,250.0,750.0,100.0,2128850.0,1700.0,3450.0
188,1,Hurstbridge line,North Richmond,Yarra C  ,144.0,FY18-19,19977.0,-37.81039836,144.9925003,929650.0,3050.0,3100.0,2750.0,1700.0,1350.0,100.0,600.0,650.0,1500.0,250.0,FY19-20,460950.0,1550.0,1650.0,1250.0,800.0,550.0,50.0,350.0,300.0,850.0,100.0,FY20-21,339950.0,1050.0,1050.0,1100.0,750.0,550.0,50.0,150.0,250.0,500.0,100.0,FY21-22,248400.0,800.0,850.0,650.0,500.0,300.0,50.0,150.0,150.0,450.0,50.0,FY22-23,540950.0,1700.0,1750.0,1450.0,1200.0,950.0,50.0,300.0,400.0,850.0,150.0,2519900.0,1550.0,4150.0
189,1,Hurstbridge line,West Richmond,Yarra C  ,145.0,FY18-19,19978.0,-37.81494896,144.9914228,510950.0,1700.0,1750.0,1500.0,850.0,600.0,50.0,400.0,400.0,750.0,150.0,FY19-20,738350.0,2400.0,2450.0,2100.0,1400.0,1100.0,50.0,500.0,550.0,1150.0,200.0,FY20-21,265250.0,900.0,900.0,850.0,450.0,300.0,50.0,150.0,200.0,450.0,100.0,FY21-22,351250.0,1100.0,1150.0,950.0,800.0,550.0,50.0,200.0,250.0,550.0,100.0,FY22-23,372950.0,1200.0,1250.0,1050.0,700.0,550.0,50.0,250.0,250.0,600.0,150.0,2238750.0,1500.0,3500.0
190,1,Hurstbridge line,Jolimont-MCG,Melbourne C  ,,,,,,,,,,,,,,,,,,,,,,,,,,,,,,,,,,,,,,,,,,,,,,,,,,,,,,,,,,,,,,,,,,,
191,1,Hurstbridge line,Parliament,Melbourne C  ,213.0,FY18-19,19843.0,-37.81105406,144.9729109,10124200.0,38000.0,39650.0,31600.0,7000.0,4850.0,150.0,1050.0,5300.0,28850.0,4200.0,FY19-20,181900.0,650.0,650.0,550.0,250.0,150.0,150.0,400.0,100.0,50.0,50.0,FY20-21,327900.0,1100.0,1150.0,900.0,600.0,400.0,200.0,550.0,200.0,150.0,50.0,FY21-22,447850.0,1400.0,1500.0,1200.0,900.0,650.0,250.0,750.0,300.0,150.0,50.0,FY22-23,4723950.0,17500.0,18700.0,12750.0,4000.0,2750.0,100.0,850.0,3100.0,12650.0,2050.0,15805800.0,3600.0,41850.0
192,1,Hurstbridge line,Melbourne Central,Melbourne C  ,212.0,FY18-19,19842.0,-37.80993877,144.9625935,15250700.0,51500.0,53150.0,45000.0,23850.0,18950.0,300.0,1700.0,10400.0,30350.0,10450.0,FY19-20,184700.0,650.0,700.0,500.0,200.0,150.0,100.0,350.0,100.0,150.0,50.0,FY20-21,70900.0,250.0,250.0,200.0,150.0,100.0,50.0,100.0,50.0,50.0,50.0,FY21-22,87950.0,300.0,300.0,250.0,150.0,100.0,50.0,150.0,50.0,50.0,50.0,FY22-23,8626300.0,29000.0,30600.0,22700.0,13700.0,10550.0,250.0,1300.0,7100.0,17050.0,4950.0,24220550.0,3600.0,47650.0
193,1,Hurstbridge line,Flagstaff,Melbourne C  ,211.0,FY18-19,19841.0,-37.81198131,144.9556538,4854950.0,18500.0,19300.0,15400.0,2600.0,1850.0,100.0,750.0,2600.0,14050.0,1750.0,FY19-20,441650.0,1300.0,1300.0,1300.0,1150.0,900.0,100.0,300.0,400.0,450.0,100.0,FY20-21,103900.0,350.0,400.0,200.0,150.0,100.0,50.0,100.0,50.0,150.0,50.0,FY21-22,115350.0,400.0,450.0,200.0,150.0,100.0,50.0,150.0,50.0,200.0,50.0,FY22-23,2758300.0,10250.0,11000.0,7550.0,2150.0,1550.0,100.0,700.0,2100.0,7150.0,950.0,8274150.0,2000.0,22000.0
194,1,Hurstbridge line,Southern Cross,Melbourne C  ,218.0,FY18-19,22180.0,-37.81793643,144.9514112,19551450.0,68350.0,70650.0,59550.0,25200.0,19350.0,650.0,3450.0,10750.0,48000.0,7800.0,FY19-20,21503500.0,70500.0,72650.0,63400.0,39400.0,28950.0,1300.0,3950.0,13250.0,42400.0,11750.0,FY20-21,1292650.0,3450.0,3600.0,3050.0,3500.0,3050.0,100.0,450.0,650.0,1550.0,850.0,FY21-22,1966800.0,4650.0,4750.0,4300.0,7350.0,5750.0,100.0,550.0,700.0,2100.0,1250.0,FY22-23,10942400.0,35900.0,37050.0,31400.0,19550.0,16250.0,450.0,2400.0,6750.0,23000.0,4400.0,55256800.0,10800.0,117050.0
195,1,Hurstbridge line,Flinders Street,Melbourne C  ,214.0,FY18-19,19854.0,-37.81830513,144.9669643,28320650.0,93050.0,94900.0,85900.0,52050.0,38750.0,1900.0,4850.0,16650.0,55250.0,16250.0,FY19-20,527250.0,1800.0,1850.0,1600.0,800.0,500.0,500.0,900.0,250.0,150.0,50.0,FY20-21,1378000.0,5050.0,5200.0,4450.0,1200.0,800.0,100.0,350.0,900.0,3400.0,450.0,FY21-22,1681700.0,6100.0,6450.0,4900.0,1650.0,1100.0,100.0,400.0,1100.0,4300.0,550.0,FY22-23,18793400.0,56800.0,56700.0,57200.0,47800.0,35350.0,1350.0,3300.0,11200.0,29950.0,10900.0,50701000.0,9800.0,93050.0
196,2,Lilydale line,Lilydale,Yarra Ranges S  ,46.0,FY18-19,19876.0,-37.75551777,145.3477102,701900.0,2300.0,2400.0,2050.0,1300.0,950.0,400.0,1000.0,500.0,400.0,50.0,FY19-20,556700.0,1800.0,1850.0,1550.0,1150.0,800.0,300.0,750.0,400.0,350.0,50.0,FY20-21,197000.0,650.0,650.0,600.0,400.0,250.0,100.0,300.0,150.0,100.0,50.0,FY21-22,236150.0,700.0,700.0,700.0,550.0,400.0,100.0,250.0,200.0,150.0,50.0,FY22-23,390200.0,1200.0,1250.0,1150.0,850.0,650.0,150.0,450.0,300.0,250.0,50.0,2081950.0,2750.0,1250.0
197,2,Lilydale line,Mooroolbark,Yarra Ranges S  ,47.0,FY18-19,19877.0,-37.78474883,145.3124024,722150.0,2500.0,2600.0,2100.0,1100.0,750.0,500.0,1350.0,400.0,250.0,50.0,FY19-20,568300.0,1950.0,2000.0,1600.0,900.0,600.0,400.0,1050.0,300.0,200.0,50.0,FY20-21,311100.0,1000.0,1000.0,1000.0,600.0,400.0,150.0,400.0,250.0,200.0,50.0,FY21-22,213050.0,650.0,650.0,650.0,450.0,300.0,100.0,300.0,150.0,100.0,50.0,FY22-23,405950.0,1350.0,1350.0,1250.0,750.0,500.0,250.0,600.0,250.0,200.0,50.0,2220550.0,3700.0,950.0
198,2,Lilydale line,Croydon,Maroondah C  ,48.0,FY18-19,19878.0,-37.79543697,145.2805978,916300.0,3150.0,3250.0,2750.0,1400.0,900.0,600.0,1600.0,600.0,450.0,50.0,FY19-20,726050.0,2450.0,2550.0,2100.0,1200.0,750.0,450.0,1200.0,450.0,350.0,50.0,FY20-21,140600.0,500.0,500.0,400.0,200.0,150.0,50.0,200.0,100.0,100.0,50.0,FY21-22,327150.0,1050.0,1100.0,950.0,650.0,400.0,150.0,500.0,250.0,200.0,50.0,FY22-23,492650.0,1650.0,1650.0,1550.0,900.0,600.0,200.0,750.0,350.0,300.0,50.0,2602750.0,4250.0,1400.0
199,2,Lilydale line,Ringwood East,Maroondah C  ,49.0,FY18-19,19879.0,-37.81196804,145.2501909,460250.0,1650.0,1700.0,1350.0,500.0,350.0,250.0,1000.0,250.0,200.0,50.0,FY19-20,369900.0,1300.0,1400.0,1050.0,450.0,300.0,200.0,800.0,200.0,200.0,50.0,FY20-21,280300.0,900.0,900.0,900.0,550.0,400.0,200.0,300.0,200.0,150.0,50.0,FY21-22,133050.0,450.0,450.0,350.0,200.0,150.0,50.0,200.0,100.0,100.0,50.0,FY22-23,206700.0,700.0,750.0,600.0,300.0,250.0,100.0,350.0,150.0,150.0,50.0,1450200.0,2650.0,800.0
200,2,Lilydale line,Ringwood,Maroondah C  ,72.0,FY18-19,19902.0,-37.81588648,145.2289685,1871350.0,5800.0,5900.0,5300.0,4200.0,3400.0,450.0,2000.0,1400.0,1600.0,400.0,FY19-20,1475200.0,4650.0,4750.0,4200.0,3300.0,2350.0,400.0,1600.0,1150.0,1300.0,300.0,FY20-21,278650.0,900.0,900.0,800.0,600.0,400.0,50.0,300.0,200.0,300.0,50.0,FY21-22,1080200.0,3200.0,3250.0,3050.0,2900.0,2050.0,200.0,850.0,850.0,1100.0,200.0,FY22-23,1334550.0,4150.0,4150.0,4150.0,3100.0,2300.0,250.0,950.0,1050.0,1650.0,300.0,6039950.0,5700.0,5950.0
201,2,Lilydale line,Heatherdale,Maroondah C  ,71.0,FY18-19,19901.0,-37.81889537,145.2127872,605900.0,2150.0,2250.0,1850.0,650.0,500.0,350.0,1350.0,300.0,250.0,50.0,FY19-20,471200.0,1650.0,1750.0,1400.0,600.0,400.0,300.0,1000.0,250.0,200.0,50.0,FY20-21,852050.0,2600.0,2600.0,2550.0,2050.0,1500.0,150.0,650.0,700.0,900.0,200.0,FY21-22,224400.0,750.0,800.0,600.0,350.0,250.0,100.0,450.0,100.0,100.0,50.0,FY22-23,289950.0,1000.0,1000.0,950.0,400.0,300.0,100.0,550.0,150.0,150.0,50.0,2443500.0,4000.0,1600.0
202,2,Lilydale line,Mitcham,Whitehorse C  ,70.0,FY18-19,19900.0,-37.81800987,145.1919735,1241550.0,4300.0,4450.0,3700.0,1700.0,1250.0,550.0,2400.0,650.0,700.0,100.0,FY19-20,945050.0,3250.0,3400.0,2750.0,1450.0,900.0,450.0,1800.0,550.0,500.0,100.0,FY20-21,185950.0,650.0,650.0,550.0,300.0,200.0,100.0,350.0,100.0,100.0,50.0,FY21-22,511650.0,1650.0,1750.0,1400.0,1000.0,700.0,150.0,800.0,350.0,350.0,50.0,FY22-23,647850.0,2200.0,2200.0,2050.0,1050.0,800.0,200.0,1050.0,450.0,500.0,50.0,3532050.0,6400.0,2150.0
203,2,Lilydale line,Nunawading,Manningham C  ,69.0,FY18-19,19899.0,-37.82060317,145.1748917,1148000.0,3900.0,4000.0,3400.0,1750.0,1450.0,350.0,2050.0,750.0,700.0,150.0,FY19-20,888900.0,2950.0,3050.0,2550.0,1500.0,1150.0,250.0,1550.0,600.0,550.0,100.0,FY20-21,401050.0,1300.0,1350.0,1150.0,700.0,500.0,150.0,600.0,300.0,300.0,50.0,FY21-22,421250.0,1350.0,1400.0,1150.0,850.0,600.0,100.0,550.0,300.0,350.0,50.0,FY22-23,526300.0,1750.0,1750.0,1600.0,950.0,800.0,100.0,750.0,400.0,450.0,50.0,3385500.0,5500.0,2350.0
204,2,Lilydale line,Blackburn,Whitehorse C  ,68.0,FY18-19,19898.0,-37.82007075,145.1500135,1484400.0,5050.0,5250.0,4350.0,2200.0,1700.0,400.0,2700.0,950.0,1000.0,150.0,FY19-20,1185100.0,3950.0,4150.0,3250.0,2050.0,1500.0,300.0,2100.0,800.0,800.0,150.0,FY20-21,390550.0,1250.0,1250.0,1150.0,800.0,550.0,100.0,450.0,300.0,350.0,50.0,FY21-22,607450.0,1950.0,2050.0,1550.0,1200.0,900.0,150.0,850.0,450.0,550.0,100.0,FY22-23,777500.0,2500.0,2550.0,2300.0,1600.0,1300.0,150.0,1050.0,550.0,700.0,100.0,4445000.0,7150.0,3400.0
205,2,Lilydale line,Laburnum,Whitehorse C  ,67.0,FY18-19,19897.0,-37.82078023,145.1407027,414700.0,1400.0,1500.0,1050.0,600.0,450.0,100.0,750.0,250.0,350.0,50.0,FY19-20,340950.0,1150.0,1200.0,850.0,600.0,400.0,100.0,600.0,250.0,250.0,50.0,FY20-21,533050.0,1700.0,1800.0,1500.0,1000.0,700.0,100.0,700.0,400.0,450.0,50.0,FY21-22,167650.0,550.0,600.0,400.0,350.0,250.0,50.0,250.0,150.0,150.0,50.0,FY22-23,208400.0,700.0,700.0,550.0,400.0,300.0,50.0,300.0,150.0,200.0,50.0,1664750.0,2600.0,1400.0
206,2,Lilydale line,Box Hill,Whitehorse C  ,201.0,FY18-19,20042.0,-37.81922165,145.1214289,3685500.0,12200.0,12600.0,10650.0,6350.0,5050.0,600.0,4000.0,3250.0,3950.0,800.0,FY19-20,675600.0,2200.0,2300.0,1900.0,1300.0,900.0,150.0,1100.0,500.0,450.0,100.0,FY20-21,211900.0,650.0,700.0,600.0,450.0,300.0,50.0,250.0,200.0,150.0,50.0,FY21-22,242300.0,750.0,800.0,650.0,550.0,400.0,50.0,300.0,200.0,200.0,50.0,FY22-23,1110800.0,3500.0,3600.0,3150.0,2300.0,1800.0,650.0,1700.0,750.0,400.0,100.0,5926100.0,7350.0,5150.0
207,1&2,Lilydale line,Union,Boroondara C  ,,,,,,,,,,,,,,,,,,,,,,,,,,,,,,,,,,,,,,,,,,,,,,,,,,,,,,,,,,,,,,,,,,,
208,1&2,Lilydale line,Chatham,Boroondara C  ,64.0,FY18-19,19894.0,-37.82429952,145.0886479,246350.0,850.0,900.0,700.0,350.0,250.0,50.0,500.0,150.0,150.0,50.0,FY19-20,196950.0,700.0,700.0,550.0,300.0,200.0,50.0,400.0,150.0,100.0,50.0,FY20-21,245900.0,800.0,800.0,700.0,450.0,300.0,50.0,400.0,150.0,150.0,50.0,FY21-22,95650.0,300.0,300.0,250.0,200.0,150.0,50.0,150.0,50.0,100.0,50.0,FY22-23,104900.0,350.0,350.0,350.0,200.0,150.0,50.0,150.0,50.0,100.0,50.0,889750.0,1600.0,600.0
209,1&2,Lilydale line,Canterbury,Boroondara C  ,63.0,FY18-19,19893.0,-37.82448518,145.0812242,374650.0,1300.0,1350.0,1050.0,550.0,400.0,100.0,650.0,250.0,350.0,50.0,FY19-20,284700.0,950.0,1000.0,750.0,450.0,350.0,50.0,500.0,200.0,250.0,50.0,FY20-21,80050.0,250.0,250.0,250.0,150.0,100.0,50.0,100.0,50.0,50.0,50.0,FY21-22,145650.0,450.0,500.0,350.0,300.0,250.0,50.0,200.0,100.0,150.0,50.0,FY22-23,160850.0,500.0,500.0,500.0,300.0,250.0,50.0,250.0,100.0,150.0,50.0,1045900.0,1700.0,950.0
210,1,Lilydale line,East Camberwell,Boroondara C  ,62.0,FY18-19,19892.0,-37.82589419,145.0681902,260350.0,950.0,1050.0,550.0,300.0,200.0,50.0,400.0,200.0,400.0,50.0,FY19-20,201450.0,700.0,800.0,400.0,250.0,150.0,50.0,300.0,150.0,300.0,50.0,FY20-21,122400.0,400.0,400.0,350.0,250.0,150.0,50.0,150.0,100.0,150.0,50.0,FY21-22,104900.0,350.0,400.0,200.0,150.0,100.0,50.0,100.0,100.0,200.0,50.0,FY22-23,108800.0,350.0,400.0,250.0,150.0,150.0,50.0,150.0,100.0,150.0,50.0,797900.0,1100.0,1200.0
211,1,Lilydale line,Camberwell,Boroondara C  ,24.0,FY18-19,19853.0,-37.82656714,145.0586972,1969600.0,6250.0,6450.0,5550.0,3800.0,3550.0,200.0,2050.0,1200.0,2550.0,400.0,FY19-20,1496350.0,4850.0,5050.0,4200.0,2650.0,2300.0,150.0,1600.0,1000.0,1950.0,350.0,FY20-21,641150.0,2000.0,2000.0,1900.0,1350.0,1150.0,50.0,500.0,500.0,850.0,150.0,FY21-22,789300.0,2400.0,2550.0,2050.0,1750.0,1500.0,100.0,700.0,600.0,1000.0,200.0,FY22-23,1631400.0,5200.0,5500.0,4050.0,3150.0,2900.0,200.0,1950.0,1250.0,1750.0,300.0,6527800.0,6800.0,8100.0
212,1,Lilydale line,Auburn,Boroondara C  ,73.0,FY18-19,19903.0,-37.82239831,145.0458437,744050.0,2500.0,2600.0,2100.0,1250.0,900.0,100.0,1200.0,550.0,650.0,100.0,FY19-20,584350.0,1950.0,2050.0,1600.0,1050.0,750.0,100.0,950.0,400.0,500.0,100.0,FY20-21,749450.0,2500.0,2650.0,1950.0,1200.0,850.0,50.0,400.0,750.0,1250.0,200.0,FY21-22,331450.0,1050.0,1100.0,850.0,750.0,550.0,50.0,400.0,250.0,300.0,50.0,FY22-23,555400.0,1750.0,1800.0,1500.0,1250.0,950.0,100.0,750.0,400.0,500.0,100.0,2964700.0,3700.0,3200.0
213,1,Lilydale line,Glenferrie,Boroondara C  ,74.0,FY18-19,19904.0,-37.82146682,145.0364388,2729100.0,9800.0,10450.0,7350.0,2950.0,2200.0,200.0,1750.0,2600.0,4850.0,1000.0,FY19-20,1949900.0,6850.0,7450.0,4900.0,2450.0,1650.0,150.0,1300.0,1900.0,3450.0,700.0,FY20-21,243600.0,800.0,850.0,700.0,400.0,300.0,50.0,250.0,200.0,350.0,50.0,FY21-22,1068450.0,3600.0,3950.0,2450.0,1650.0,1200.0,50.0,550.0,1150.0,1850.0,350.0,FY22-23,1747000.0,6050.0,6500.0,4350.0,2400.0,1850.0,100.0,950.0,1800.0,3050.0,600.0,7738050.0,4800.0,13550.0
214,1,Lilydale line,Hawthorn,Boroondara C  ,75.0,FY18-19,19905.0,-37.82182601,145.0228987,709100.0,2500.0,2600.0,2050.0,950.0,700.0,100.0,1050.0,450.0,900.0,100.0,FY19-20,553450.0,1900.0,2050.0,1550.0,750.0,550.0,100.0,800.0,400.0,700.0,50.0,FY20-21,303500.0,850.0,900.0,750.0,1000.0,650.0,50.0,250.0,200.0,350.0,50.0,FY21-22,285900.0,950.0,1000.0,700.0,550.0,400.0,50.0,300.0,200.0,400.0,50.0,FY22-23,469400.0,1550.0,1650.0,1250.0,800.0,650.0,50.0,550.0,350.0,650.0,50.0,2321350.0,2950.0,3000.0
215,1,Lilydale line,Burnley,Yarra C  ,76.0,FY18-19,19906.0,-37.82756022,145.0075551,865300.0,2650.0,2700.0,2550.0,2100.0,1400.0,100.0,1100.0,450.0,900.0,150.0,FY19-20,633700.0,2150.0,2200.0,1950.0,1200.0,650.0,100.0,850.0,350.0,750.0,150.0,FY20-21,198600.0,700.0,700.0,600.0,300.0,200.0,50.0,100.0,100.0,400.0,50.0,FY21-22,455750.0,1250.0,1200.0,1400.0,1700.0,1050.0,50.0,350.0,250.0,450.0,100.0,FY22-23,709000.0,2050.0,1900.0,2700.0,2000.0,1700.0,50.0,600.0,350.0,750.0,150.0,2862350.0,3000.0,3250.0
216,1,Lilydale line,East Richmond,Yarra C  ,77.0,FY18-19,19907.0,-37.82639995,144.9970657,666900.0,2500.0,2600.0,2200.0,500.0,300.0,50.0,400.0,300.0,1650.0,200.0,FY19-20,506300.0,1850.0,1950.0,1600.0,450.0,250.0,50.0,300.0,250.0,1200.0,150.0,FY20-21,99050.0,350.0,450.0,100.0,100.0,50.0,50.0,50.0,100.0,250.0,50.0,FY21-22,251800.0,850.0,900.0,700.0,400.0,250.0,50.0,150.0,150.0,550.0,50.0,FY22-23,457450.0,1600.0,1700.0,1350.0,600.0,400.0,50.0,250.0,250.0,1050.0,150.0,1981500.0,1150.0,4700.0
217,1,Lilydale line,Richmond,Yarra C  ,215.0,FY18-19,19908.0,-37.82407446,144.9901643,4227000.0,11800.0,11850.0,11650.0,12700.0,8950.0,250.0,1700.0,1650.0,5000.0,3250.0,FY19-20,3883350.0,14600.0,15350.0,12100.0,2200.0,1600.0,100.0,650.0,2250.0,10950.0,1400.0,FY20-21,4206700.0,13550.0,13350.0,14150.0,7700.0,5800.0,100.0,550.0,3150.0,7450.0,2050.0,FY21-22,5491300.0,17600.0,18050.0,16050.0,10850.0,7900.0,200.0,850.0,4150.0,9900.0,2900.0,FY22-23,3105850.0,7850.0,8000.0,7300.0,11050.0,8750.0,150.0,850.0,1050.0,3400.0,2550.0,20914200.0,4600.0,36700.0
218,1,Lilydale line,Parliament,Melbourne C  ,213.0,FY18-19,19843.0,-37.81105406,144.9729109,10124200.0,38000.0,39650.0,31600.0,7000.0,4850.0,150.0,1050.0,5300.0,28850.0,4200.0,FY19-20,181900.0,650.0,650.0,550.0,250.0,150.0,150.0,400.0,100.0,50.0,50.0,FY20-21,327900.0,1100.0,1150.0,900.0,600.0,400.0,200.0,550.0,200.0,150.0,50.0,FY21-22,447850.0,1400.0,1500.0,1200.0,900.0,650.0,250.0,750.0,300.0,150.0,50.0,FY22-23,4723950.0,17500.0,18700.0,12750.0,4000.0,2750.0,100.0,850.0,3100.0,12650.0,2050.0,15805800.0,3600.0,41850.0
219,1,Lilydale line,Melbourne Central,Melbourne C  ,212.0,FY18-19,19842.0,-37.80993877,144.9625935,15250700.0,51500.0,53150.0,45000.0,23850.0,18950.0,300.0,1700.0,10400.0,30350.0,10450.0,FY19-20,184700.0,650.0,700.0,500.0,200.0,150.0,100.0,350.0,100.0,150.0,50.0,FY20-21,70900.0,250.0,250.0,200.0,150.0,100.0,50.0,100.0,50.0,50.0,50.0,FY21-22,87950.0,300.0,300.0,250.0,150.0,100.0,50.0,150.0,50.0,50.0,50.0,FY22-23,8626300.0,29000.0,30600.0,22700.0,13700.0,10550.0,250.0,1300.0,7100.0,17050.0,4950.0,24220550.0,3600.0,47650.0
220,1,Lilydale line,Flagstaff,Melbourne C  ,211.0,FY18-19,19841.0,-37.81198131,144.9556538,4854950.0,18500.0,19300.0,15400.0,2600.0,1850.0,100.0,750.0,2600.0,14050.0,1750.0,FY19-20,441650.0,1300.0,1300.0,1300.0,1150.0,900.0,100.0,300.0,400.0,450.0,100.0,FY20-21,103900.0,350.0,400.0,200.0,150.0,100.0,50.0,100.0,50.0,150.0,50.0,FY21-22,115350.0,400.0,450.0,200.0,150.0,100.0,50.0,150.0,50.0,200.0,50.0,FY22-23,2758300.0,10250.0,11000.0,7550.0,2150.0,1550.0,100.0,700.0,2100.0,7150.0,950.0,8274150.0,2000.0,22000.0
221,1,Lilydale line,Southern Cross,Melbourne C  ,218.0,FY18-19,22180.0,-37.81793643,144.9514112,19551450.0,68350.0,70650.0,59550.0,25200.0,19350.0,650.0,3450.0,10750.0,48000.0,7800.0,FY19-20,21503500.0,70500.0,72650.0,63400.0,39400.0,28950.0,1300.0,3950.0,13250.0,42400.0,11750.0,FY20-21,1292650.0,3450.0,3600.0,3050.0,3500.0,3050.0,100.0,450.0,650.0,1550.0,850.0,FY21-22,1966800.0,4650.0,4750.0,4300.0,7350.0,5750.0,100.0,550.0,700.0,2100.0,1250.0,FY22-23,10942400.0,35900.0,37050.0,31400.0,19550.0,16250.0,450.0,2400.0,6750.0,23000.0,4400.0,55256800.0,10800.0,117050.0
222,1,Lilydale line,Flinders Street,Melbourne C  ,214.0,FY18-19,19854.0,-37.81830513,144.9669643,28320650.0,93050.0,94900.0,85900.0,52050.0,38750.0,1900.0,4850.0,16650.0,55250.0,16250.0,FY19-20,527250.0,1800.0,1850.0,1600.0,800.0,500.0,500.0,900.0,250.0,150.0,50.0,FY20-21,1378000.0,5050.0,5200.0,4450.0,1200.0,800.0,100.0,350.0,900.0,3400.0,450.0,FY21-22,1681700.0,6100.0,6450.0,4900.0,1650.0,1100.0,100.0,400.0,1100.0,4300.0,550.0,FY22-23,18793400.0,56800.0,56700.0,57200.0,47800.0,35350.0,1350.0,3300.0,11200.0,29950.0,10900.0,50701000.0,9800.0,93050.0
223,2,Mernda line,Mernda,Whittlesea C  ,222.0,FY18-19,52161.0,-37.602549,145.100883,562350.0,1900.0,1950.0,1550.0,950.0,650.0,550.0,950.0,300.0,200.0,50.0,FY19-20,14895400.0,52450.0,54750.0,44700.0,17550.0,13150.0,500.0,2650.0,8500.0,37550.0,5550.0,FY20-21,233800.0,750.0,750.0,700.0,500.0,350.0,50.0,300.0,150.0,200.0,50.0,FY21-22,8350.0,50.0,50.0,50.0,100.0,50.0,50.0,50.0,50.0,50.0,50.0,FY22-23,398450.0,1250.0,1250.0,1150.0,950.0,650.0,50.0,400.0,350.0,350.0,50.0,16098350.0,4350.0,38350.0
224,2,Mernda line,Hawkstowe,Whittlesea C  ,221.0,FY18-19,52160.0,-37.622992,145.097396,193600.0,650.0,700.0,550.0,250.0,200.0,150.0,400.0,100.0,50.0,50.0,FY19-20,787850.0,2000.0,2000.0,2000.0,2700.0,2300.0,50.0,200.0,350.0,1000.0,450.0,FY20-21,4556450.0,14550.0,14550.0,14550.0,8700.0,6550.0,250.0,1100.0,3050.0,8550.0,1550.0,FY21-22,6187150.0,19350.0,19900.0,17350.0,12800.0,10250.0,350.0,1500.0,3850.0,11650.0,2550.0,FY22-23,262500.0,850.0,850.0,800.0,550.0,450.0,50.0,300.0,200.0,250.0,50.0,11987550.0,3500.0,21500.0
225,2,Mernda line,Middle Gorge,Whittlesea C  ,210.0,FY18-19,52159.0,-37.644062,145.09214,192700.0,700.0,750.0,450.0,250.0,150.0,150.0,350.0,100.0,150.0,50.0,FY19-20,1419700.0,5100.0,5250.0,4450.0,1600.0,950.0,800.0,3050.0,900.0,400.0,100.0,FY20-21,277000.0,750.0,750.0,850.0,800.0,600.0,50.0,100.0,250.0,300.0,50.0,FY21-22,298200.0,850.0,800.0,1000.0,850.0,650.0,50.0,100.0,250.0,350.0,50.0,FY22-23,672750.0,2200.0,2250.0,1850.0,1350.0,950.0,450.0,1100.0,400.0,250.0,50.0,2860350.0,4700.0,1450.0
226,2,Mernda line,South Morang,Whittlesea C  ,207.0,FY18-19,45795.0,-37.6491588,145.0670324,886550.0,3000.0,3050.0,2650.0,1500.0,1050.0,550.0,1400.0,550.0,450.0,150.0,FY19-20,352250.0,1250.0,1400.0,750.0,450.0,300.0,250.0,750.0,250.0,100.0,50.0,FY20-21,193250.0,650.0,650.0,600.0,300.0,200.0,150.0,250.0,150.0,50.0,50.0,FY21-22,194800.0,650.0,700.0,500.0,300.0,200.0,150.0,300.0,150.0,100.0,50.0,FY22-23,413400.0,1200.0,1200.0,1100.0,1100.0,900.0,50.0,200.0,400.0,500.0,100.0,2040250.0,2900.0,1200.0
227,2,Mernda line,Epping,Whittlesea C  ,168.0,FY18-19,20005.0,-37.65238715,145.0301217,887650.0,3050.0,3200.0,2400.0,1350.0,950.0,450.0,1250.0,700.0,700.0,100.0,FY19-20,537450.0,1800.0,1900.0,1450.0,850.0,600.0,250.0,1050.0,350.0,200.0,50.0,FY20-21,417650.0,1350.0,1400.0,1200.0,750.0,550.0,200.0,400.0,350.0,400.0,50.0,FY21-22,203100.0,650.0,700.0,550.0,350.0,250.0,100.0,300.0,150.0,100.0,50.0,FY22-23,672900.0,2200.0,2300.0,1700.0,1250.0,1000.0,300.0,800.0,550.0,650.0,100.0,2718750.0,3800.0,2050.0
228,2,Mernda line,Lalor,Whittlesea C  ,169.0,FY18-19,20006.0,-37.66585075,145.0171932,605050.0,2100.0,2150.0,1800.0,900.0,650.0,450.0,1100.0,350.0,200.0,50.0,FY19-20,690350.0,2350.0,2450.0,1950.0,1100.0,750.0,350.0,950.0,550.0,500.0,100.0,FY20-21,243550.0,800.0,800.0,750.0,450.0,350.0,150.0,300.0,200.0,150.0,50.0,FY21-22,434500.0,1400.0,1500.0,1100.0,800.0,600.0,200.0,450.0,350.0,450.0,50.0,FY22-23,388600.0,1250.0,1300.0,1100.0,700.0,600.0,200.0,600.0,250.0,150.0,50.0,2362050.0,3400.0,1450.0
229,2,Mernda line,Thomastown,Whittlesea C  ,170.0,FY18-19,20007.0,-37.68033809,145.0142789,806600.0,2700.0,2750.0,2350.0,1400.0,1000.0,400.0,1250.0,650.0,400.0,100.0,FY19-20,477500.0,1650.0,1700.0,1500.0,700.0,450.0,300.0,850.0,300.0,150.0,50.0,FY20-21,343750.0,1100.0,1100.0,1050.0,700.0,550.0,150.0,400.0,300.0,200.0,50.0,FY21-22,241700.0,800.0,800.0,700.0,450.0,300.0,150.0,350.0,200.0,100.0,50.0,FY22-23,571800.0,1800.0,1850.0,1650.0,1200.0,950.0,250.0,750.0,450.0,350.0,50.0,2441350.0,3600.0,1200.0
230,2,Mernda line,Keon Park,Darebin C  ,171.0,FY18-19,20008.0,-37.69487012,145.0118838,396950.0,1300.0,1350.0,1100.0,700.0,500.0,150.0,500.0,300.0,350.0,50.0,FY19-20,600300.0,2000.0,2050.0,1850.0,1050.0,700.0,300.0,900.0,500.0,300.0,50.0,FY20-21,178750.0,600.0,600.0,550.0,350.0,200.0,50.0,150.0,150.0,200.0,50.0,FY21-22,391050.0,1200.0,1250.0,1150.0,850.0,600.0,150.0,500.0,300.0,250.0,50.0,FY22-23,271900.0,900.0,900.0,800.0,500.0,400.0,50.0,300.0,200.0,300.0,50.0,1838950.0,2350.0,1400.0
231,2,Mernda line,Ruthven,Darebin C  ,172.0,FY18-19,20009.0,-37.70789754,145.0095166,409500.0,1350.0,1400.0,1200.0,700.0,500.0,200.0,800.0,250.0,150.0,50.0,FY19-20,313250.0,1000.0,1050.0,950.0,600.0,400.0,150.0,350.0,250.0,250.0,50.0,FY20-21,162400.0,500.0,500.0,500.0,350.0,250.0,100.0,250.0,100.0,100.0,50.0,FY21-22,174750.0,600.0,600.0,500.0,300.0,200.0,50.0,150.0,150.0,200.0,50.0,FY22-23,237150.0,750.0,750.0,700.0,500.0,400.0,100.0,400.0,150.0,100.0,50.0,1297050.0,1950.0,800.0
232,1&2,Mernda line,Reservoir,Darebin C  ,173.0,FY18-19,20010.0,-37.71688492,145.0069958,959050.0,3200.0,3350.0,2800.0,1600.0,1150.0,350.0,1300.0,850.0,750.0,150.0,FY19-20,334100.0,1100.0,1150.0,1000.0,550.0,400.0,150.0,650.0,200.0,100.0,50.0,FY20-21,349200.0,1100.0,1150.0,1050.0,700.0,500.0,100.0,350.0,300.0,300.0,50.0,FY21-22,157350.0,500.0,500.0,450.0,350.0,250.0,100.0,250.0,100.0,50.0,50.0,FY22-23,691000.0,2200.0,2300.0,1900.0,1400.0,1050.0,250.0,850.0,550.0,600.0,150.0,2490700.0,3400.0,1800.0
233,1&2,Mernda line,Regent,Darebin C  ,174.0,FY18-19,20011.0,-37.72840277,145.0027726,490050.0,1650.0,1700.0,1400.0,800.0,600.0,200.0,950.0,300.0,200.0,50.0,FY19-20,517550.0,1700.0,1750.0,1600.0,900.0,650.0,200.0,650.0,450.0,400.0,50.0,FY20-21,170900.0,550.0,550.0,550.0,350.0,250.0,50.0,250.0,100.0,100.0,50.0,FY21-22,473200.0,1500.0,1550.0,1300.0,1050.0,700.0,150.0,500.0,400.0,450.0,100.0,FY22-23,323850.0,1050.0,1050.0,950.0,600.0,500.0,100.0,550.0,200.0,150.0,50.0,1975550.0,2900.0,1300.0
234,1&2,Mernda line,Preston,Darebin C  ,175.0,FY18-19,20012.0,-37.73867424,145.000522,862550.0,2750.0,2900.0,2300.0,1900.0,1250.0,200.0,1000.0,800.0,750.0,150.0,FY19-20,399650.0,1350.0,1400.0,1200.0,600.0,400.0,200.0,800.0,250.0,150.0,50.0,FY20-21,317300.0,950.0,950.0,950.0,800.0,500.0,50.0,250.0,300.0,300.0,50.0,FY21-22,176100.0,550.0,600.0,500.0,350.0,250.0,50.0,300.0,100.0,100.0,50.0,FY22-23,340700.0,1100.0,1100.0,950.0,700.0,550.0,50.0,550.0,200.0,250.0,50.0,2096300.0,2900.0,1550.0
235,1,Mernda line,Bell,Darebin C  ,176.0,FY18-19,20013.0,-37.74556212,145.000155,530900.0,1700.0,1800.0,1500.0,1050.0,750.0,150.0,700.0,400.0,450.0,100.0,FY19-20,648650.0,2050.0,2150.0,1850.0,1400.0,900.0,150.0,750.0,600.0,550.0,100.0,FY20-21,170000.0,550.0,550.0,550.0,350.0,200.0,50.0,150.0,150.0,200.0,50.0,FY21-22,238850.0,750.0,750.0,650.0,600.0,400.0,50.0,200.0,200.0,250.0,50.0,FY22-23,202800.0,650.0,650.0,600.0,450.0,350.0,50.0,350.0,100.0,100.0,50.0,1791200.0,2150.0,1550.0
236,1,Mernda line,Thornbury,Darebin C  ,177.0,FY18-19,20014.0,-37.75505179,144.9985715,592300.0,1950.0,2000.0,1900.0,1100.0,750.0,150.0,1100.0,350.0,300.0,100.0,FY19-20,444100.0,1400.0,1450.0,1200.0,1000.0,750.0,100.0,600.0,300.0,350.0,100.0,FY20-21,190250.0,600.0,600.0,600.0,400.0,250.0,50.0,250.0,150.0,150.0,50.0,FY21-22,132450.0,450.0,450.0,400.0,250.0,200.0,50.0,150.0,100.0,150.0,50.0,FY22-23,239250.0,750.0,800.0,650.0,500.0,350.0,50.0,300.0,150.0,250.0,50.0,1598350.0,2400.0,1200.0
237,1,Mernda line,Croxton,Darebin C  ,178.0,FY18-19,20015.0,-37.764101,144.9970562,356400.0,1150.0,1200.0,1050.0,700.0,450.0,100.0,700.0,200.0,150.0,50.0,FY19-20,544200.0,1700.0,1800.0,1250.0,1350.0,900.0,150.0,1000.0,350.0,250.0,50.0,FY20-21,115250.0,350.0,350.0,350.0,250.0,200.0,50.0,150.0,100.0,50.0,50.0,FY21-22,205700.0,650.0,650.0,550.0,450.0,300.0,50.0,300.0,150.0,150.0,50.0,FY22-23,121150.0,400.0,400.0,350.0,250.0,200.0,50.0,150.0,100.0,100.0,50.0,1342700.0,2300.0,700.0
238,1,Mernda line,Northcote,Darebin C  ,179.0,FY18-19,20016.0,-37.76986537,144.9952772,400750.0,1350.0,1400.0,1100.0,750.0,500.0,100.0,600.0,250.0,350.0,100.0,FY19-20,281250.0,900.0,950.0,800.0,550.0,400.0,50.0,550.0,150.0,100.0,50.0,FY20-21,151500.0,500.0,500.0,450.0,300.0,200.0,50.0,150.0,100.0,200.0,50.0,FY21-22,121300.0,350.0,400.0,350.0,300.0,200.0,50.0,200.0,100.0,50.0,50.0,FY22-23,101600.0,300.0,300.0,300.0,250.0,200.0,50.0,100.0,50.0,100.0,50.0,1056400.0,1600.0,800.0
239,1,Mernda line,Merri,Darebin C  ,180.0,FY18-19,20017.0,-37.77784668,144.9929725,196550.0,650.0,700.0,500.0,350.0,250.0,50.0,300.0,150.0,200.0,50.0,FY19-20,308200.0,1000.0,1050.0,850.0,600.0,400.0,50.0,450.0,200.0,300.0,50.0,FY20-21,70400.0,200.0,250.0,200.0,150.0,100.0,50.0,100.0,50.0,50.0,50.0,FY21-22,150400.0,500.0,500.0,400.0,300.0,250.0,50.0,150.0,100.0,200.0,50.0,FY22-23,1635650.0,5300.0,5500.0,4550.0,3150.0,2450.0,400.0,1650.0,1400.0,1700.0,300.0,2361200.0,2650.0,2450.0
240,1,Mernda line,Rushall,Yarra C  ,181.0,FY18-19,20019.0,-37.78321711,144.9924071,158350.0,500.0,550.0,400.0,300.0,200.0,50.0,250.0,100.0,150.0,50.0,FY19-20,153450.0,500.0,550.0,400.0,300.0,200.0,50.0,250.0,100.0,150.0,50.0,FY20-21,69400.0,200.0,250.0,200.0,150.0,100.0,50.0,50.0,50.0,50.0,50.0,FY21-22,72550.0,250.0,250.0,200.0,150.0,100.0,50.0,100.0,50.0,100.0,50.0,FY22-23,365900.0,1250.0,1300.0,1050.0,600.0,450.0,100.0,600.0,300.0,300.0,50.0,819650.0,1250.0,750.0
241,1,Mernda line,Clifton Hill,Yarra C  ,141.0,FY18-19,19974.0,-37.78865745,144.9954167,990100.0,2850.0,2950.0,2650.0,2900.0,2050.0,150.0,1250.0,650.0,700.0,200.0,FY19-20,249450.0,850.0,900.0,700.0,400.0,250.0,50.0,150.0,200.0,400.0,50.0,FY20-21,347000.0,1000.0,1050.0,950.0,900.0,700.0,50.0,350.0,250.0,300.0,100.0,FY21-22,126350.0,400.0,400.0,350.0,250.0,200.0,50.0,50.0,100.0,200.0,50.0,FY22-23,716900.0,2000.0,2050.0,1900.0,2050.0,1850.0,100.0,750.0,450.0,600.0,150.0,2429800.0,2550.0,2200.0
242,1,Mernda line,Victoria Park,Yarra C  ,142.0,FY18-19,19975.0,-37.79915782,144.9944514,757700.0,2500.0,2600.0,2250.0,1350.0,1000.0,100.0,750.0,450.0,1100.0,200.0,FY19-20,709000.0,2250.0,2350.0,1950.0,1600.0,1100.0,100.0,1000.0,500.0,500.0,150.0,FY20-21,277400.0,850.0,850.0,800.0,700.0,450.0,50.0,200.0,200.0,350.0,100.0,FY21-22,454200.0,1300.0,1350.0,1100.0,1350.0,950.0,50.0,500.0,300.0,400.0,100.0,FY22-23,529400.0,1650.0,1700.0,1400.0,1250.0,950.0,50.0,450.0,300.0,750.0,150.0,2727700.0,2900.0,3100.0
243,1,Mernda line,Collingwood,Yarra C  ,143.0,FY18-19,19976.0,-37.80452593,144.9937497,564450.0,1900.0,2000.0,1550.0,950.0,650.0,50.0,400.0,350.0,1050.0,150.0,FY19-20,612450.0,2000.0,2100.0,1750.0,1100.0,850.0,50.0,700.0,400.0,800.0,150.0,FY20-21,221100.0,750.0,750.0,650.0,400.0,250.0,50.0,100.0,150.0,400.0,50.0,FY21-22,317800.0,950.0,1000.0,800.0,800.0,550.0,50.0,250.0,200.0,450.0,100.0,FY22-23,413050.0,1350.0,1400.0,1100.0,800.0,550.0,50.0,250.0,250.0,750.0,100.0,2128850.0,1700.0,3450.0
244,1,Mernda line,North Richmond,Yarra C  ,144.0,FY18-19,19977.0,-37.81039836,144.9925003,929650.0,3050.0,3100.0,2750.0,1700.0,1350.0,100.0,600.0,650.0,1500.0,250.0,FY19-20,460950.0,1550.0,1650.0,1250.0,800.0,550.0,50.0,350.0,300.0,850.0,100.0,FY20-21,339950.0,1050.0,1050.0,1100.0,750.0,550.0,50.0,150.0,250.0,500.0,100.0,FY21-22,248400.0,800.0,850.0,650.0,500.0,300.0,50.0,150.0,150.0,450.0,50.0,FY22-23,540950.0,1700.0,1750.0,1450.0,1200.0,950.0,50.0,300.0,400.0,850.0,150.0,2519900.0,1550.0,4150.0
245,1,Mernda line,West Richmond,Yarra C  ,145.0,FY18-19,19978.0,-37.81494896,144.9914228,510950.0,1700.0,1750.0,1500.0,850.0,600.0,50.0,400.0,400.0,750.0,150.0,FY19-20,738350.0,2400.0,2450.0,2100.0,1400.0,1100.0,50.0,500.0,550.0,1150.0,200.0,FY20-21,265250.0,900.0,900.0,850.0,450.0,300.0,50.0,150.0,200.0,450.0,100.0,FY21-22,351250.0,1100.0,1150.0,950.0,800.0,550.0,50.0,200.0,250.0,550.0,100.0,FY22-23,372950.0,1200.0,1250.0,1050.0,700.0,550.0,50.0,250.0,250.0,600.0,150.0,2238750.0,1500.0,3500.0
246,1,Mernda line,Jolimont-MCG,Melbourne C  ,,,,,,,,,,,,,,,,,,,,,,,,,,,,,,,,,,,,,,,,,,,,,,,,,,,,,,,,,,,,,,,,,,,
247,1,Mernda line,Parliament,Melbourne C  ,213.0,FY18-19,19843.0,-37.81105406,144.9729109,10124200.0,38000.0,39650.0,31600.0,7000.0,4850.0,150.0,1050.0,5300.0,28850.0,4200.0,FY19-20,181900.0,650.0,650.0,550.0,250.0,150.0,150.0,400.0,100.0,50.0,50.0,FY20-21,327900.0,1100.0,1150.0,900.0,600.0,400.0,200.0,550.0,200.0,150.0,50.0,FY21-22,447850.0,1400.0,1500.0,1200.0,900.0,650.0,250.0,750.0,300.0,150.0,50.0,FY22-23,4723950.0,17500.0,18700.0,12750.0,4000.0,2750.0,100.0,850.0,3100.0,12650.0,2050.0,15805800.0,3600.0,41850.0
248,1,Mernda line,Melbourne Central,Melbourne C  ,212.0,FY18-19,19842.0,-37.80993877,144.9625935,15250700.0,51500.0,53150.0,45000.0,23850.0,18950.0,300.0,1700.0,10400.0,30350.0,10450.0,FY19-20,184700.0,650.0,700.0,500.0,200.0,150.0,100.0,350.0,100.0,150.0,50.0,FY20-21,70900.0,250.0,250.0,200.0,150.0,100.0,50.0,100.0,50.0,50.0,50.0,FY21-22,87950.0,300.0,300.0,250.0,150.0,100.0,50.0,150.0,50.0,50.0,50.0,FY22-23,8626300.0,29000.0,30600.0,22700.0,13700.0,10550.0,250.0,1300.0,7100.0,17050.0,4950.0,24220550.0,3600.0,47650.0
249,1,Mernda line,Flagstaff,Melbourne C  ,211.0,FY18-19,19841.0,-37.81198131,144.9556538,4854950.0,18500.0,19300.0,15400.0,2600.0,1850.0,100.0,750.0,2600.0,14050.0,1750.0,FY19-20,441650.0,1300.0,1300.0,1300.0,1150.0,900.0,100.0,300.0,400.0,450.0,100.0,FY20-21,103900.0,350.0,400.0,200.0,150.0,100.0,50.0,100.0,50.0,150.0,50.0,FY21-22,115350.0,400.0,450.0,200.0,150.0,100.0,50.0,150.0,50.0,200.0,50.0,FY22-23,2758300.0,10250.0,11000.0,7550.0,2150.0,1550.0,100.0,700.0,2100.0,7150.0,950.0,8274150.0,2000.0,22000.0
250,1,Mernda line,Southern Cross,Melbourne C  ,218.0,FY18-19,22180.0,-37.81793643,144.9514112,19551450.0,68350.0,70650.0,59550.0,25200.0,19350.0,650.0,3450.0,10750.0,48000.0,7800.0,FY19-20,21503500.0,70500.0,72650.0,63400.0,39400.0,28950.0,1300.0,3950.0,13250.0,42400.0,11750.0,FY20-21,1292650.0,3450.0,3600.0,3050.0,3500.0,3050.0,100.0,450.0,650.0,1550.0,850.0,FY21-22,1966800.0,4650.0,4750.0,4300.0,7350.0,5750.0,100.0,550.0,700.0,2100.0,1250.0,FY22-23,10942400.0,35900.0,37050.0,31400.0,19550.0,16250.0,450.0,2400.0,6750.0,23000.0,4400.0,55256800.0,10800.0,117050.0
251,1,Mernda line,Flinders Street,Melbourne C  ,214.0,FY18-19,19854.0,-37.81830513,144.9669643,28320650.0,93050.0,94900.0,85900.0,52050.0,38750.0,1900.0,4850.0,16650.0,55250.0,16250.0,FY19-20,527250.0,1800.0,1850.0,1600.0,800.0,500.0,500.0,900.0,250.0,150.0,50.0,FY20-21,1378000.0,5050.0,5200.0,4450.0,1200.0,800.0,100.0,350.0,900.0,3400.0,450.0,FY21-22,1681700.0,6100.0,6450.0,4900.0,1650.0,1100.0,100.0,400.0,1100.0,4300.0,550.0,FY22-23,18793400.0,56800.0,56700.0,57200.0,47800.0,35350.0,1350.0,3300.0,11200.0,29950.0,10900.0,50701000.0,9800.0,93050.0
252,2,Pakenham line,Pakenham,Cardinia S  ,50.0,FY18-19,19880.0,-38.08061397,145.4863791,489250.0,1600.0,1750.0,1200.0,850.0,600.0,400.0,600.0,350.0,250.0,50.0,FY19-20,465800.0,1500.0,1650.0,1050.0,900.0,650.0,350.0,600.0,350.0,250.0,50.0,FY20-21,62250.0,200.0,250.0,200.0,50.0,50.0,50.0,100.0,50.0,50.0,50.0,FY21-22,270350.0,850.0,900.0,700.0,550.0,400.0,200.0,250.0,250.0,200.0,50.0,FY22-23,398000.0,1250.0,1250.0,1150.0,850.0,700.0,250.0,400.0,300.0,250.0,50.0,1685650.0,1950.0,1000.0
253,2,Pakenham line,Cardinia Road,Cardinia S  ,206.0,FY18-19,45794.0,-38.07129047,145.437791,381850.0,1350.0,1450.0,1000.0,450.0,300.0,400.0,700.0,250.0,100.0,50.0,FY19-20,274750.0,950.0,1000.0,850.0,350.0,250.0,100.0,600.0,150.0,100.0,50.0,FY20-21,174550.0,600.0,650.0,450.0,250.0,150.0,100.0,350.0,100.0,50.0,50.0,FY21-22,203150.0,700.0,750.0,450.0,300.0,200.0,150.0,400.0,150.0,100.0,50.0,FY22-23,1166300.0,4000.0,4150.0,3350.0,1800.0,1300.0,500.0,2300.0,800.0,450.0,100.0,2200600.0,4350.0,800.0
254,2,Pakenham line,Officer,Cardinia S  ,51.0,FY18-19,19881.0,-38.06614572,145.4109872,122900.0,450.0,500.0,250.0,100.0,50.0,100.0,250.0,50.0,100.0,50.0,FY19-20,132100.0,500.0,550.0,300.0,100.0,100.0,150.0,250.0,100.0,100.0,50.0,FY20-21,109600.0,400.0,400.0,300.0,150.0,100.0,100.0,150.0,100.0,100.0,50.0,FY21-22,64850.0,250.0,250.0,150.0,100.0,50.0,50.0,100.0,50.0,50.0,50.0,FY22-23,127000.0,450.0,450.0,350.0,150.0,100.0,100.0,200.0,100.0,50.0,50.0,556450.0,950.0,400.0
255,2,Pakenham line,Beaconsfield,Cardinia S  ,52.0,FY18-19,19882.0,-38.05083135,145.3660737,273350.0,1000.0,1100.0,600.0,200.0,150.0,300.0,500.0,100.0,200.0,50.0,FY19-20,234200.0,850.0,950.0,450.0,200.0,150.0,250.0,400.0,100.0,150.0,50.0,FY20-21,361200.0,1250.0,1300.0,1000.0,500.0,350.0,200.0,400.0,300.0,300.0,50.0,FY21-22,119350.0,400.0,450.0,250.0,150.0,100.0,100.0,200.0,100.0,100.0,50.0,FY22-23,209400.0,750.0,800.0,550.0,250.0,150.0,200.0,350.0,100.0,150.0,50.0,1197500.0,1850.0,900.0
256,2,Pakenham line,Berwick,Casey C  ,53.0,FY18-19,19883.0,-38.04040829,145.3457261,864800.0,3150.0,3400.0,2100.0,900.0,600.0,800.0,1350.0,600.0,600.0,100.0,FY19-20,754550.0,2650.0,3000.0,1550.0,900.0,600.0,700.0,1200.0,550.0,500.0,50.0,FY20-21,309300.0,1050.0,1050.0,1000.0,500.0,350.0,200.0,350.0,250.0,150.0,50.0,FY21-22,325600.0,1100.0,1200.0,750.0,500.0,350.0,200.0,400.0,300.0,300.0,50.0,FY22-23,697250.0,2400.0,2600.0,1600.0,950.0,700.0,450.0,1000.0,600.0,500.0,50.0,2951500.0,4300.0,2050.0
257,2,Pakenham line,Narre Warren,Casey C  ,54.0,FY18-19,19884.0,-38.02780932,145.3039694,658700.0,2300.0,2450.0,1750.0,900.0,600.0,500.0,1100.0,450.0,300.0,100.0,FY19-20,587550.0,2000.0,2150.0,1350.0,950.0,650.0,500.0,900.0,450.0,250.0,50.0,FY20-21,219250.0,750.0,750.0,750.0,300.0,200.0,150.0,250.0,150.0,150.0,50.0,FY21-22,318150.0,1050.0,1100.0,850.0,550.0,400.0,200.0,400.0,250.0,200.0,50.0,FY22-23,429650.0,1400.0,1500.0,1150.0,750.0,600.0,250.0,600.0,350.0,250.0,50.0,2213300.0,3250.0,1150.0
258,2,Pakenham line,Hallam,Casey C  ,55.0,FY18-19,19885.0,-38.01774038,145.2697768,522450.0,1850.0,2000.0,1350.0,600.0,400.0,450.0,850.0,350.0,300.0,50.0,FY19-20,463500.0,1600.0,1750.0,1100.0,600.0,400.0,400.0,750.0,300.0,250.0,50.0,FY20-21,407700.0,1350.0,1400.0,1200.0,700.0,500.0,300.0,500.0,300.0,150.0,50.0,FY21-22,118900.0,400.0,400.0,350.0,150.0,150.0,50.0,150.0,100.0,100.0,50.0,FY22-23,399600.0,1400.0,1450.0,1050.0,550.0,400.0,250.0,650.0,300.0,250.0,50.0,1912150.0,2900.0,1050.0
259,2,Pakenham line,Dandenong,Greater Dandenong C  ,58.0,FY18-19,19888.0,-37.98996792,145.2097254,2165200.0,7200.0,7350.0,6500.0,3800.0,2750.0,550.0,1950.0,1850.0,2500.0,450.0,FY19-20,1819050.0,6050.0,6350.0,5050.0,3150.0,2300.0,450.0,1550.0,1650.0,2250.0,400.0,FY20-21,158500.0,500.0,500.0,500.0,300.0,250.0,50.0,150.0,150.0,100.0,50.0,FY21-22,1234650.0,3950.0,4200.0,3050.0,2450.0,1850.0,300.0,950.0,1050.0,1600.0,250.0,FY22-23,1738900.0,5700.0,5800.0,5250.0,3350.0,2450.0,400.0,1300.0,1400.0,2200.0,450.0,7116300.0,5900.0,8650.0
260,2,Pakenham line,Yarraman,Greater Dandenong C  ,59.0,FY18-19,19889.0,-37.97825454,145.1916003,302050.0,1050.0,1100.0,900.0,450.0,300.0,150.0,500.0,250.0,150.0,50.0,FY19-20,283350.0,950.0,1000.0,700.0,450.0,350.0,150.0,450.0,250.0,150.0,50.0,FY20-21,513650.0,1650.0,1700.0,1500.0,950.0,800.0,200.0,500.0,450.0,400.0,100.0,FY21-22,140000.0,450.0,500.0,350.0,250.0,200.0,50.0,150.0,150.0,100.0,50.0,FY22-23,210350.0,700.0,750.0,500.0,400.0,300.0,100.0,300.0,200.0,150.0,50.0,1449400.0,1900.0,950.0
261,2,Pakenham line,Noble Park,Greater Dandenong C  ,60.0,FY18-19,19890.0,-37.96723193,145.1769357,929900.0,3150.0,3300.0,2450.0,1500.0,1100.0,400.0,1300.0,800.0,700.0,150.0,FY19-20,868350.0,2850.0,3100.0,2100.0,1550.0,1100.0,350.0,1150.0,800.0,650.0,150.0,FY20-21,178800.0,600.0,600.0,550.0,300.0,250.0,50.0,250.0,150.0,100.0,50.0,FY21-22,556700.0,1750.0,1900.0,1350.0,1100.0,850.0,250.0,600.0,500.0,500.0,100.0,FY22-23,816200.0,2650.0,2850.0,1850.0,1550.0,1150.0,300.0,1000.0,700.0,700.0,150.0,3349950.0,4300.0,2650.0
262,2,Pakenham line,Sandown Park,Greater Dandenong C  ,61.0,FY18-19,19891.0,-37.95650457,145.1628259,537400.0,1900.0,2000.0,1500.0,600.0,450.0,250.0,1250.0,350.0,150.0,50.0,FY19-20,443950.0,1550.0,1700.0,1000.0,600.0,450.0,200.0,1050.0,300.0,150.0,50.0,FY20-21,100800.0,350.0,400.0,200.0,150.0,100.0,50.0,100.0,100.0,200.0,50.0,FY21-22,189600.0,600.0,650.0,450.0,350.0,300.0,50.0,300.0,150.0,100.0,50.0,FY22-23,315850.0,1050.0,1150.0,700.0,550.0,400.0,100.0,650.0,250.0,100.0,50.0,1587600.0,3350.0,700.0
263,2,Pakenham line,Springvale,Greater Dandenong C  ,82.0,FY18-19,19913.0,-37.94950878,145.1534518,1509450.0,4800.0,5000.0,4000.0,3150.0,2450.0,400.0,1600.0,1400.0,1250.0,300.0,FY19-20,1295050.0,4000.0,4300.0,3100.0,3000.0,2150.0,350.0,1300.0,1250.0,1150.0,250.0,FY20-21,339550.0,1000.0,1000.0,900.0,900.0,700.0,100.0,300.0,250.0,300.0,50.0,FY21-22,750700.0,2300.0,2400.0,1850.0,1700.0,1300.0,200.0,600.0,700.0,750.0,150.0,FY22-23,1162600.0,3600.0,3850.0,2700.0,2650.0,2000.0,250.0,1050.0,1100.0,1150.0,250.0,5057350.0,4850.0,4600.0
264,2,Pakenham line,Westall,Kingston C  ,83.0,FY18-19,19914.0,-37.93849121,145.1388326,894250.0,2800.0,2900.0,2400.0,1750.0,1700.0,300.0,1200.0,650.0,650.0,100.0,FY19-20,676550.0,1950.0,2100.0,1600.0,2000.0,1400.0,200.0,800.0,450.0,500.0,100.0,FY20-21,796650.0,2500.0,2500.0,2500.0,1600.0,1300.0,150.0,600.0,700.0,850.0,250.0,FY21-22,474400.0,1500.0,1500.0,1650.0,950.0,750.0,150.0,450.0,350.0,450.0,100.0,FY22-23,668350.0,1950.0,1850.0,2300.0,1700.0,1650.0,150.0,650.0,400.0,550.0,150.0,3510200.0,3700.0,3000.0
265,2,Pakenham line,Clayton,Monash C  ,84.0,FY18-19,19915.0,-37.92468255,145.1205344,1612700.0,5250.0,5650.0,3750.0,3100.0,2400.0,350.0,1700.0,1550.0,1550.0,450.0,FY19-20,1388700.0,4450.0,4850.0,3250.0,2800.0,1950.0,300.0,1500.0,1300.0,1350.0,400.0,FY20-21,556100.0,1950.0,2050.0,1550.0,650.0,450.0,100.0,450.0,500.0,850.0,150.0,FY21-22,853500.0,2700.0,2750.0,2500.0,1800.0,1300.0,200.0,700.0,700.0,900.0,200.0,FY22-23,1209900.0,3900.0,4200.0,2650.0,2550.0,1700.0,300.0,1200.0,1100.0,1300.0,350.0,5620900.0,5550.0,5950.0
266,1&2,Pakenham line,Huntingdale,Monash C  ,85.0,FY18-19,19916.0,-37.91101734,145.1023643,1592900.0,5800.0,6350.0,3550.0,1500.0,1050.0,350.0,1800.0,1350.0,2400.0,450.0,FY19-20,1151750.0,4100.0,4650.0,2250.0,1150.0,850.0,250.0,1400.0,1000.0,1700.0,300.0,FY20-21,763050.0,2400.0,2450.0,2300.0,1600.0,1150.0,150.0,550.0,650.0,900.0,200.0,FY21-22,666850.0,2350.0,2600.0,1550.0,750.0,500.0,100.0,550.0,600.0,1150.0,200.0,FY22-23,1118800.0,4050.0,4500.0,2100.0,1150.0,750.0,150.0,1050.0,1050.0,1900.0,350.0,5293350.0,5350.0,8050.0
267,1&2,Pakenham line,Oakleigh,Monash C  ,86.0,FY18-19,19917.0,-37.90037214,145.0883079,1733100.0,5750.0,6200.0,4050.0,3100.0,2250.0,400.0,2100.0,1400.0,1850.0,400.0,FY19-20,1215300.0,3950.0,4400.0,2600.0,2300.0,1600.0,300.0,1350.0,1050.0,1400.0,350.0,FY20-21,250500.0,800.0,800.0,750.0,500.0,350.0,50.0,300.0,200.0,200.0,50.0,FY21-22,836350.0,2650.0,2750.0,2300.0,1750.0,1250.0,150.0,650.0,700.0,1050.0,200.0,FY22-23,1253850.0,4000.0,4300.0,2650.0,2750.0,1800.0,200.0,1200.0,1000.0,1600.0,300.0,5289100.0,5600.0,6100.0
268,1&2,Pakenham line,Hughesdale,Monash C  ,219.0,FY18-19,19918.0,-37.89488129,145.0776351,443900.0,1500.0,1650.0,850.0,750.0,500.0,100.0,800.0,350.0,300.0,100.0,FY19-20,2965500.0,8600.0,8800.0,7900.0,8450.0,6150.0,200.0,1250.0,1350.0,4150.0,1900.0,FY20-21,669700.0,1950.0,2000.0,1650.0,1950.0,1300.0,50.0,350.0,500.0,950.0,150.0,FY21-22,703500.0,2150.0,2250.0,1850.0,1750.0,1250.0,50.0,350.0,500.0,1100.0,200.0,FY22-23,505450.0,1500.0,1550.0,1300.0,1400.0,1050.0,50.0,450.0,400.0,550.0,100.0,5288050.0,3200.0,7050.0
269,1,Pakenham line,Murrumbeena,Glen Eira C  ,87.0,FY18-19,19919.0,-37.89019832,145.0673749,779450.0,2650.0,2900.0,1850.0,1200.0,850.0,250.0,1600.0,600.0,350.0,100.0,FY19-20,501050.0,1650.0,1850.0,1000.0,850.0,600.0,150.0,850.0,400.0,350.0,100.0,FY20-21,318600.0,1000.0,1050.0,1000.0,600.0,450.0,100.0,400.0,250.0,200.0,50.0,FY21-22,276350.0,850.0,900.0,750.0,600.0,400.0,50.0,350.0,200.0,250.0,50.0,FY22-23,444600.0,1450.0,1550.0,950.0,900.0,600.0,100.0,700.0,350.0,400.0,50.0,2320050.0,3900.0,1550.0
270,1,Pakenham line,Carnegie,Glen Eira C  ,88.0,FY18-19,19920.0,-37.88624148,145.0585751,991250.0,3300.0,3550.0,2200.0,1800.0,1350.0,200.0,1700.0,850.0,550.0,300.0,FY19-20,625600.0,2100.0,2350.0,1250.0,1000.0,700.0,200.0,1300.0,500.0,300.0,50.0,FY20-21,460850.0,1450.0,1450.0,1450.0,950.0,750.0,100.0,500.0,400.0,350.0,100.0,FY21-22,351600.0,1150.0,1200.0,950.0,700.0,500.0,100.0,500.0,250.0,250.0,50.0,FY22-23,567900.0,1900.0,2050.0,1250.0,1000.0,700.0,150.0,1050.0,400.0,400.0,50.0,2997200.0,5050.0,1850.0
271,1,Pakenham line,Caulfield,Glen Eira C  ,111.0,FY18-19,19943.0,-37.87745946,145.0425248,4175050.0,12800.0,13500.0,10050.0,10200.0,7650.0,350.0,2850.0,3350.0,4950.0,2000.0,FY19-20,660200.0,2150.0,2350.0,1400.0,1300.0,900.0,150.0,1100.0,550.0,450.0,100.0,FY20-21,1370650.0,3950.0,4050.0,3700.0,3800.0,2750.0,150.0,900.0,1100.0,1450.0,450.0,FY21-22,342700.0,1050.0,1050.0,900.0,850.0,600.0,50.0,350.0,300.0,250.0,50.0,FY22-23,2668350.0,8150.0,8900.0,5200.0,6000.0,5650.0,250.0,2250.0,2150.0,3050.0,1150.0,9216950.0,7450.0,10150.0
272,1,Pakenham line,Malvern,Stonnington C  ,112.0,FY18-19,19944.0,-37.8662533,145.0292939,832800.0,2750.0,3000.0,1750.0,1500.0,1200.0,100.0,1150.0,600.0,900.0,200.0,FY19-20,2853200.0,9050.0,9100.0,8850.0,6450.0,4250.0,250.0,2050.0,2300.0,3200.0,1250.0,FY20-21,340300.0,1050.0,1100.0,1000.0,700.0,550.0,50.0,250.0,250.0,450.0,100.0,FY21-22,1874050.0,5500.0,5700.0,4600.0,5400.0,3700.0,200.0,1350.0,1450.0,2050.0,650.0,FY22-23,531650.0,1700.0,1850.0,1000.0,1100.0,850.0,50.0,550.0,450.0,700.0,150.0,6432000.0,5350.0,7300.0
273,1,Pakenham line,Armadale,Stonnington C  ,113.0,FY18-19,19945.0,-37.85645238,145.0193255,582450.0,1950.0,2150.0,1200.0,1050.0,750.0,100.0,900.0,450.0,600.0,100.0,FY19-20,586650.0,1900.0,2200.0,950.0,1100.0,750.0,100.0,850.0,450.0,700.0,150.0,FY20-21,227300.0,750.0,750.0,650.0,450.0,300.0,50.0,250.0,200.0,250.0,50.0,FY21-22,371100.0,1200.0,1250.0,950.0,750.0,550.0,50.0,300.0,300.0,500.0,100.0,FY22-23,370550.0,1200.0,1350.0,650.0,700.0,500.0,50.0,550.0,300.0,450.0,50.0,2138050.0,2850.0,2500.0
274,1,Pakenham line,Toorak,Stonnington C  ,114.0,FY18-19,19946.0,-37.85077381,145.0139086,514950.0,1750.0,1950.0,950.0,900.0,600.0,50.0,850.0,400.0,500.0,100.0,FY19-20,414400.0,1350.0,1600.0,650.0,750.0,500.0,50.0,700.0,350.0,450.0,50.0,FY20-21,196650.0,650.0,700.0,500.0,350.0,250.0,50.0,200.0,150.0,250.0,50.0,FY21-22,244650.0,800.0,850.0,600.0,500.0,350.0,50.0,250.0,200.0,300.0,50.0,FY22-23,329150.0,1100.0,1250.0,550.0,600.0,400.0,50.0,450.0,250.0,450.0,50.0,1699800.0,2450.0,1950.0
275,1,Pakenham line,Hawksburn,Stonnington C  ,115.0,FY18-19,19947.0,-37.84459087,145.0021421,507600.0,1650.0,1800.0,1050.0,1050.0,750.0,100.0,850.0,400.0,350.0,100.0,FY19-20,370450.0,1250.0,1450.0,500.0,650.0,450.0,50.0,650.0,300.0,400.0,50.0,FY20-21,201400.0,600.0,600.0,600.0,450.0,300.0,50.0,200.0,150.0,200.0,50.0,FY21-22,224850.0,750.0,800.0,500.0,450.0,300.0,50.0,250.0,200.0,300.0,50.0,FY22-23,340500.0,1100.0,1200.0,650.0,700.0,500.0,50.0,500.0,250.0,300.0,50.0,1644800.0,2450.0,1550.0
276,1,Pakenham line,South Yarra,Melbourne C  ,127.0,FY18-19,19959.0,-37.83844935,144.9923422,4367150.0,14500.0,15450.0,10700.0,8050.0,5750.0,450.0,4400.0,3300.0,5950.0,1350.0,FY19-20,951300.0,3200.0,3350.0,2600.0,1600.0,1050.0,100.0,950.0,650.0,1400.0,250.0,FY20-21,1669900.0,5300.0,5500.0,4600.0,3500.0,2400.0,150.0,1050.0,1350.0,2400.0,500.0,FY21-22,571600.0,1800.0,1900.0,1600.0,1300.0,800.0,50.0,400.0,400.0,850.0,150.0,FY22-23,2769550.0,9000.0,9550.0,6850.0,5600.0,3900.0,250.0,2250.0,2250.0,3950.0,850.0,10329500.0,9050.0,14550.0
277,1,Pakenham line,Richmond,Yarra C  ,215.0,FY18-19,19908.0,-37.82407446,144.9901643,4227000.0,11800.0,11850.0,11650.0,12700.0,8950.0,250.0,1700.0,1650.0,5000.0,3250.0,FY19-20,3883350.0,14600.0,15350.0,12100.0,2200.0,1600.0,100.0,650.0,2250.0,10950.0,1400.0,FY20-21,4206700.0,13550.0,13350.0,14150.0,7700.0,5800.0,100.0,550.0,3150.0,7450.0,2050.0,FY21-22,5491300.0,17600.0,18050.0,16050.0,10850.0,7900.0,200.0,850.0,4150.0,9900.0,2900.0,FY22-23,3105850.0,7850.0,8000.0,7300.0,11050.0,8750.0,150.0,850.0,1050.0,3400.0,2550.0,20914200.0,4600.0,36700.0
278,1,Pakenham line,Flinders Street,Melbourne C  ,214.0,FY18-19,19854.0,-37.81830513,144.9669643,28320650.0,93050.0,94900.0,85900.0,52050.0,38750.0,1900.0,4850.0,16650.0,55250.0,16250.0,FY19-20,527250.0,1800.0,1850.0,1600.0,800.0,500.0,500.0,900.0,250.0,150.0,50.0,FY20-21,1378000.0,5050.0,5200.0,4450.0,1200.0,800.0,100.0,350.0,900.0,3400.0,450.0,FY21-22,1681700.0,6100.0,6450.0,4900.0,1650.0,1100.0,100.0,400.0,1100.0,4300.0,550.0,FY22-23,18793400.0,56800.0,56700.0,57200.0,47800.0,35350.0,1350.0,3300.0,11200.0,29950.0,10900.0,50701000.0,9800.0,93050.0
279,1,Pakenham line,Southern Cross,Melbourne C  ,218.0,FY18-19,22180.0,-37.81793643,144.9514112,19551450.0,68350.0,70650.0,59550.0,25200.0,19350.0,650.0,3450.0,10750.0,48000.0,7800.0,FY19-20,21503500.0,70500.0,72650.0,63400.0,39400.0,28950.0,1300.0,3950.0,13250.0,42400.0,11750.0,FY20-21,1292650.0,3450.0,3600.0,3050.0,3500.0,3050.0,100.0,450.0,650.0,1550.0,850.0,FY21-22,1966800.0,4650.0,4750.0,4300.0,7350.0,5750.0,100.0,550.0,700.0,2100.0,1250.0,FY22-23,10942400.0,35900.0,37050.0,31400.0,19550.0,16250.0,450.0,2400.0,6750.0,23000.0,4400.0,55256800.0,10800.0,117050.0
280,1,Pakenham line,Flagstaff,Melbourne C  ,211.0,FY18-19,19841.0,-37.81198131,144.9556538,4854950.0,18500.0,19300.0,15400.0,2600.0,1850.0,100.0,750.0,2600.0,14050.0,1750.0,FY19-20,441650.0,1300.0,1300.0,1300.0,1150.0,900.0,100.0,300.0,400.0,450.0,100.0,FY20-21,103900.0,350.0,400.0,200.0,150.0,100.0,50.0,100.0,50.0,150.0,50.0,FY21-22,115350.0,400.0,450.0,200.0,150.0,100.0,50.0,150.0,50.0,200.0,50.0,FY22-23,2758300.0,10250.0,11000.0,7550.0,2150.0,1550.0,100.0,700.0,2100.0,7150.0,950.0,8274150.0,2000.0,22000.0
281,1,Pakenham line,Melbourne Central,Melbourne C  ,212.0,FY18-19,19842.0,-37.80993877,144.9625935,15250700.0,51500.0,53150.0,45000.0,23850.0,18950.0,300.0,1700.0,10400.0,30350.0,10450.0,FY19-20,184700.0,650.0,700.0,500.0,200.0,150.0,100.0,350.0,100.0,150.0,50.0,FY20-21,70900.0,250.0,250.0,200.0,150.0,100.0,50.0,100.0,50.0,50.0,50.0,FY21-22,87950.0,300.0,300.0,250.0,150.0,100.0,50.0,150.0,50.0,50.0,50.0,FY22-23,8626300.0,29000.0,30600.0,22700.0,13700.0,10550.0,250.0,1300.0,7100.0,17050.0,4950.0,24220550.0,3600.0,47650.0
282,1,Pakenham line,Parliament,Melbourne C  ,213.0,FY18-19,19843.0,-37.81105406,144.9729109,10124200.0,38000.0,39650.0,31600.0,7000.0,4850.0,150.0,1050.0,5300.0,28850.0,4200.0,FY19-20,181900.0,650.0,650.0,550.0,250.0,150.0,150.0,400.0,100.0,50.0,50.0,FY20-21,327900.0,1100.0,1150.0,900.0,600.0,400.0,200.0,550.0,200.0,150.0,50.0,FY21-22,447850.0,1400.0,1500.0,1200.0,900.0,650.0,250.0,750.0,300.0,150.0,50.0,FY22-23,4723950.0,17500.0,18700.0,12750.0,4000.0,2750.0,100.0,850.0,3100.0,12650.0,2050.0,15805800.0,3600.0,41850.0
283,2,Sandringham line,Sandringham,Bayside C  ,116.0,FY18-19,19948.0,-37.95033018,145.0045614,875550.0,2900.0,2800.0,3350.0,1500.0,1150.0,250.0,1500.0,500.0,400.0,100.0,FY19-20,369550.0,1200.0,1350.0,600.0,750.0,500.0,100.0,650.0,300.0,300.0,50.0,FY20-21,350400.0,1050.0,1050.0,1000.0,900.0,650.0,50.0,400.0,250.0,250.0,50.0,FY21-22,231600.0,750.0,750.0,600.0,550.0,350.0,50.0,300.0,200.0,200.0,50.0,FY22-23,731450.0,2150.0,2050.0,2600.0,2000.0,1400.0,150.0,950.0,400.0,450.0,100.0,2558550.0,3800.0,1600.0
284,2,Sandringham line,Hampton,Bayside C  ,117.0,FY18-19,19949.0,-37.93797681,145.0014706,577200.0,1950.0,1950.0,2000.0,950.0,700.0,150.0,1050.0,350.0,300.0,100.0,FY19-20,813600.0,2600.0,2500.0,2850.0,1700.0,1250.0,250.0,1300.0,450.0,400.0,100.0,FY20-21,229200.0,700.0,700.0,650.0,550.0,400.0,50.0,250.0,200.0,150.0,50.0,FY21-22,423250.0,1200.0,1250.0,1150.0,1200.0,900.0,100.0,500.0,300.0,300.0,50.0,FY22-23,436550.0,1350.0,1350.0,1400.0,1000.0,700.0,50.0,650.0,300.0,300.0,100.0,2479800.0,3750.0,1450.0
285,1&2,Sandringham line,Brighton Beach,Bayside C  ,118.0,FY18-19,19950.0,-37.92648432,144.9891536,447600.0,1400.0,1300.0,1700.0,900.0,850.0,100.0,600.0,250.0,300.0,50.0,FY19-20,501150.0,1650.0,1650.0,1650.0,950.0,650.0,150.0,850.0,300.0,250.0,50.0,FY20-21,140150.0,400.0,400.0,400.0,400.0,300.0,50.0,150.0,100.0,100.0,50.0,FY21-22,269050.0,800.0,850.0,750.0,700.0,500.0,50.0,350.0,200.0,200.0,50.0,FY22-23,386650.0,1100.0,950.0,1600.0,1100.0,850.0,50.0,400.0,200.0,250.0,50.0,1744600.0,2350.0,1100.0
286,1&2,Sandringham line,Middle Brighton,Bayside C  ,119.0,FY18-19,19951.0,-37.91513441,144.9962991,682450.0,2200.0,2200.0,2250.0,1300.0,1100.0,100.0,900.0,500.0,550.0,150.0,FY19-20,345550.0,1100.0,1050.0,1300.0,700.0,550.0,100.0,500.0,200.0,200.0,50.0,FY20-21,243050.0,750.0,750.0,700.0,550.0,400.0,50.0,200.0,200.0,250.0,50.0,FY21-22,186400.0,500.0,500.0,500.0,550.0,450.0,50.0,200.0,150.0,100.0,50.0,FY22-23,473800.0,1450.0,1400.0,1450.0,1150.0,900.0,50.0,500.0,350.0,450.0,100.0,1931250.0,2300.0,1550.0
287,1&2,Sandringham line,North Brighton,Bayside C  ,120.0,FY18-19,19952.0,-37.90488721,145.002605,665650.0,2250.0,2250.0,2250.0,1100.0,750.0,150.0,1150.0,450.0,450.0,100.0,FY19-20,567700.0,1750.0,1800.0,1700.0,1250.0,950.0,100.0,700.0,400.0,450.0,100.0,FY20-21,246150.0,750.0,750.0,700.0,600.0,400.0,50.0,250.0,200.0,200.0,50.0,FY21-22,292700.0,900.0,900.0,800.0,750.0,550.0,50.0,250.0,250.0,300.0,50.0,FY22-23,480700.0,1500.0,1500.0,1500.0,1050.0,750.0,50.0,650.0,300.0,400.0,100.0,2252900.0,3000.0,1800.0
288,1,Sandringham line,Gardenvale,Glen Eira C  ,121.0,FY18-19,19953.0,-37.89669508,145.0041684,518050.0,1800.0,1750.0,1800.0,800.0,550.0,100.0,900.0,350.0,400.0,50.0,FY19-20,554050.0,1850.0,1850.0,1750.0,1050.0,700.0,100.0,900.0,400.0,350.0,100.0,FY20-21,185050.0,600.0,600.0,500.0,400.0,250.0,50.0,200.0,150.0,200.0,50.0,FY21-22,291000.0,900.0,900.0,800.0,700.0,500.0,50.0,350.0,250.0,250.0,50.0,FY22-23,356400.0,1100.0,1150.0,1100.0,800.0,550.0,50.0,500.0,250.0,300.0,50.0,1904550.0,2850.0,1500.0
289,1,Sandringham line,Elsternwick,Glen Eira C  ,122.0,FY18-19,19954.0,-37.88475311,145.0008979,971200.0,3300.0,3250.0,3350.0,1600.0,1200.0,200.0,1650.0,650.0,600.0,200.0,FY19-20,421550.0,1400.0,1400.0,1450.0,750.0,500.0,100.0,700.0,250.0,300.0,50.0,FY20-21,385100.0,1200.0,1200.0,1150.0,900.0,650.0,50.0,400.0,300.0,300.0,100.0,FY21-22,217150.0,650.0,700.0,550.0,500.0,350.0,50.0,250.0,150.0,200.0,50.0,FY22-23,710350.0,2200.0,2200.0,2200.0,1600.0,1200.0,100.0,1000.0,450.0,550.0,150.0,2705350.0,4000.0,1950.0
290,1,Sandringham line,Ripponlea,Port Phillip C  ,123.0,FY18-19,19955.0,-37.87590643,144.9952366,656550.0,2250.0,2300.0,2050.0,950.0,700.0,150.0,1250.0,450.0,400.0,100.0,FY19-20,797150.0,2600.0,2650.0,2550.0,1500.0,1000.0,150.0,1300.0,550.0,500.0,150.0,FY20-21,244200.0,800.0,800.0,700.0,500.0,350.0,50.0,300.0,200.0,200.0,50.0,FY21-22,438400.0,1350.0,1400.0,1250.0,1050.0,750.0,50.0,550.0,300.0,350.0,100.0,FY22-23,440500.0,1400.0,1450.0,1250.0,900.0,700.0,50.0,700.0,300.0,300.0,50.0,2576800.0,4100.0,1750.0
291,1,Sandringham line,Balaclava,Port Phillip C  ,124.0,FY18-19,19956.0,-37.86948773,144.9935121,1114550.0,3800.0,3850.0,3650.0,1700.0,1350.0,200.0,1850.0,750.0,800.0,200.0,FY19-20,531200.0,1800.0,1850.0,1500.0,900.0,600.0,100.0,1000.0,350.0,300.0,50.0,FY20-21,416700.0,1300.0,1300.0,1350.0,900.0,650.0,100.0,450.0,350.0,350.0,100.0,FY21-22,276600.0,850.0,900.0,750.0,600.0,450.0,50.0,400.0,200.0,250.0,50.0,FY22-23,726350.0,2250.0,2250.0,2250.0,1600.0,1250.0,100.0,950.0,450.0,550.0,150.0,3065400.0,4650.0,2250.0
292,1,Sandringham line,Windsor,Port Phillip C  ,125.0,FY18-19,19957.0,-37.85605308,144.9920352,915800.0,3150.0,3300.0,2700.0,1350.0,950.0,150.0,1350.0,550.0,1000.0,250.0,FY19-20,923000.0,3050.0,3150.0,2700.0,1650.0,1200.0,200.0,1500.0,650.0,650.0,150.0,FY20-21,334200.0,1050.0,1100.0,950.0,700.0,450.0,50.0,300.0,250.0,400.0,100.0,FY21-22,468900.0,1450.0,1450.0,1350.0,1100.0,800.0,100.0,550.0,350.0,400.0,100.0,FY22-23,555550.0,1750.0,1850.0,1500.0,1250.0,800.0,50.0,650.0,300.0,600.0,150.0,3197450.0,4350.0,3050.0
293,1,Sandringham line,Prahran,Melbourne C  ,126.0,FY18-19,19958.0,-37.84951848,144.9898599,1156050.0,4000.0,4100.0,3600.0,1650.0,1200.0,100.0,1200.0,750.0,1750.0,300.0,FY19-20,714100.0,2400.0,2550.0,1850.0,1250.0,800.0,100.0,1050.0,450.0,750.0,200.0,FY20-21,473550.0,1550.0,1550.0,1500.0,950.0,600.0,50.0,300.0,350.0,700.0,150.0,FY21-22,375950.0,1150.0,1200.0,1000.0,900.0,550.0,50.0,350.0,250.0,450.0,150.0,FY22-23,838550.0,2700.0,2750.0,2400.0,1800.0,1200.0,100.0,700.0,550.0,1200.0,200.0,3558200.0,3600.0,4850.0
294,1,Sandringham line,South Yarra,Melbourne C  ,127.0,FY18-19,19959.0,-37.83844935,144.9923422,4367150.0,14500.0,15450.0,10700.0,8050.0,5750.0,450.0,4400.0,3300.0,5950.0,1350.0,FY19-20,951300.0,3200.0,3350.0,2600.0,1600.0,1050.0,100.0,950.0,650.0,1400.0,250.0,FY20-21,1669900.0,5300.0,5500.0,4600.0,3500.0,2400.0,150.0,1050.0,1350.0,2400.0,500.0,FY21-22,571600.0,1800.0,1900.0,1600.0,1300.0,800.0,50.0,400.0,400.0,850.0,150.0,FY22-23,2769550.0,9000.0,9550.0,6850.0,5600.0,3900.0,250.0,2250.0,2250.0,3950.0,850.0,10329500.0,9050.0,14550.0
295,1,Sandringham line,Richmond,Yarra C  ,215.0,FY18-19,19908.0,-37.82407446,144.9901643,4227000.0,11800.0,11850.0,11650.0,12700.0,8950.0,250.0,1700.0,1650.0,5000.0,3250.0,FY19-20,3883350.0,14600.0,15350.0,12100.0,2200.0,1600.0,100.0,650.0,2250.0,10950.0,1400.0,FY20-21,4206700.0,13550.0,13350.0,14150.0,7700.0,5800.0,100.0,550.0,3150.0,7450.0,2050.0,FY21-22,5491300.0,17600.0,18050.0,16050.0,10850.0,7900.0,200.0,850.0,4150.0,9900.0,2900.0,FY22-23,3105850.0,7850.0,8000.0,7300.0,11050.0,8750.0,150.0,850.0,1050.0,3400.0,2550.0,20914200.0,4600.0,36700.0
296,1,Sandringham line,Flinders Street,Melbourne C  ,214.0,FY18-19,19854.0,-37.81830513,144.9669643,28320650.0,93050.0,94900.0,85900.0,52050.0,38750.0,1900.0,4850.0,16650.0,55250.0,16250.0,FY19-20,527250.0,1800.0,1850.0,1600.0,800.0,500.0,500.0,900.0,250.0,150.0,50.0,FY20-21,1378000.0,5050.0,5200.0,4450.0,1200.0,800.0,100.0,350.0,900.0,3400.0,450.0,FY21-22,1681700.0,6100.0,6450.0,4900.0,1650.0,1100.0,100.0,400.0,1100.0,4300.0,550.0,FY22-23,18793400.0,56800.0,56700.0,57200.0,47800.0,35350.0,1350.0,3300.0,11200.0,29950.0,10900.0,50701000.0,9800.0,93050.0
297,1,Sandringham line,Southern Cross,Melbourne C  ,218.0,FY18-19,22180.0,-37.81793643,144.9514112,19551450.0,68350.0,70650.0,59550.0,25200.0,19350.0,650.0,3450.0,10750.0,48000.0,7800.0,FY19-20,21503500.0,70500.0,72650.0,63400.0,39400.0,28950.0,1300.0,3950.0,13250.0,42400.0,11750.0,FY20-21,1292650.0,3450.0,3600.0,3050.0,3500.0,3050.0,100.0,450.0,650.0,1550.0,850.0,FY21-22,1966800.0,4650.0,4750.0,4300.0,7350.0,5750.0,100.0,550.0,700.0,2100.0,1250.0,FY22-23,10942400.0,35900.0,37050.0,31400.0,19550.0,16250.0,450.0,2400.0,6750.0,23000.0,4400.0,55256800.0,10800.0,117050.0
298,1,Sandringham line,Flagstaff,Melbourne C  ,211.0,FY18-19,19841.0,-37.81198131,144.9556538,4854950.0,18500.0,19300.0,15400.0,2600.0,1850.0,100.0,750.0,2600.0,14050.0,1750.0,FY19-20,441650.0,1300.0,1300.0,1300.0,1150.0,900.0,100.0,300.0,400.0,450.0,100.0,FY20-21,103900.0,350.0,400.0,200.0,150.0,100.0,50.0,100.0,50.0,150.0,50.0,FY21-22,115350.0,400.0,450.0,200.0,150.0,100.0,50.0,150.0,50.0,200.0,50.0,FY22-23,2758300.0,10250.0,11000.0,7550.0,2150.0,1550.0,100.0,700.0,2100.0,7150.0,950.0,8274150.0,2000.0,22000.0
299,1,Sandringham line,Melbourne Central,Melbourne C  ,212.0,FY18-19,19842.0,-37.80993877,144.9625935,15250700.0,51500.0,53150.0,45000.0,23850.0,18950.0,300.0,1700.0,10400.0,30350.0,10450.0,FY19-20,184700.0,650.0,700.0,500.0,200.0,150.0,100.0,350.0,100.0,150.0,50.0,FY20-21,70900.0,250.0,250.0,200.0,150.0,100.0,50.0,100.0,50.0,50.0,50.0,FY21-22,87950.0,300.0,300.0,250.0,150.0,100.0,50.0,150.0,50.0,50.0,50.0,FY22-23,8626300.0,29000.0,30600.0,22700.0,13700.0,10550.0,250.0,1300.0,7100.0,17050.0,4950.0,24220550.0,3600.0,47650.0
300,1,Sandringham line,Parliament,Melbourne C  ,213.0,FY18-19,19843.0,-37.81105406,144.9729109,10124200.0,38000.0,39650.0,31600.0,7000.0,4850.0,150.0,1050.0,5300.0,28850.0,4200.0,FY19-20,181900.0,650.0,650.0,550.0,250.0,150.0,150.0,400.0,100.0,50.0,50.0,FY20-21,327900.0,1100.0,1150.0,900.0,600.0,400.0,200.0,550.0,200.0,150.0,50.0,FY21-22,447850.0,1400.0,1500.0,1200.0,900.0,650.0,250.0,750.0,300.0,150.0,50.0,FY22-23,4723950.0,17500.0,18700.0,12750.0,4000.0,2750.0,100.0,850.0,3100.0,12650.0,2050.0,15805800.0,3600.0,41850.0
301,2,Stony Point line,Stony Point,Mornington Peninsula S  ,1.0,FY18-19,19827.0,-38.37423454,145.2218375,5400.0,50.0,50.0,50.0,50.0,50.0,50.0,50.0,50.0,50.0,50.0,FY19-20,4350.0,50.0,50.0,50.0,50.0,50.0,50.0,50.0,50.0,50.0,50.0,FY20-21,3900.0,50.0,50.0,50.0,50.0,50.0,50.0,50.0,50.0,50.0,50.0,FY21-22,3600.0,50.0,50.0,50.0,50.0,50.0,50.0,50.0,50.0,50.0,50.0,FY22-23,5500.0,50.0,50.0,50.0,50.0,50.0,50.0,50.0,50.0,50.0,50.0,22750.0,250.0,250.0
302,2,Stony Point line,Crib Point,Mornington Peninsula S  ,2.0,FY18-19,19828.0,-38.36612338,145.2040433,17900.0,50.0,50.0,50.0,150.0,100.0,50.0,50.0,50.0,50.0,50.0,FY19-20,10800.0,50.0,50.0,50.0,100.0,50.0,50.0,50.0,50.0,50.0,50.0,FY20-21,8450.0,50.0,50.0,50.0,50.0,50.0,50.0,50.0,50.0,50.0,50.0,FY21-22,6700.0,50.0,50.0,50.0,50.0,50.0,50.0,50.0,50.0,50.0,50.0,FY22-23,9450.0,50.0,50.0,50.0,50.0,50.0,50.0,50.0,50.0,50.0,50.0,53300.0,250.0,250.0
303,2,Stony Point line,Morradoo,Mornington Peninsula S  ,3.0,FY18-19,19829.0,-38.35403334,145.1896025,5650.0,50.0,50.0,50.0,50.0,50.0,50.0,50.0,50.0,50.0,50.0,FY19-20,3400.0,50.0,50.0,50.0,50.0,50.0,50.0,50.0,50.0,50.0,50.0,FY20-21,2200.0,50.0,50.0,50.0,50.0,50.0,50.0,50.0,50.0,50.0,50.0,FY21-22,2300.0,50.0,50.0,50.0,50.0,50.0,50.0,50.0,50.0,50.0,50.0,FY22-23,3750.0,50.0,50.0,50.0,50.0,50.0,50.0,50.0,50.0,50.0,50.0,17300.0,250.0,250.0
304,2,Stony Point line,Bittern,Mornington Peninsula S  ,4.0,FY18-19,19830.0,-38.33739032,145.1780265,14800.0,50.0,50.0,50.0,50.0,50.0,50.0,50.0,50.0,50.0,50.0,FY19-20,9400.0,50.0,50.0,50.0,50.0,50.0,50.0,50.0,50.0,50.0,50.0,FY20-21,5350.0,50.0,50.0,50.0,50.0,50.0,50.0,50.0,50.0,50.0,50.0,FY21-22,4600.0,50.0,50.0,50.0,50.0,50.0,50.0,50.0,50.0,50.0,50.0,FY22-23,7050.0,50.0,50.0,50.0,50.0,50.0,50.0,50.0,50.0,50.0,50.0,41200.0,250.0,250.0
305,2,Stony Point line,Hastings,Mornington Peninsula S  ,5.0,FY18-19,19831.0,-38.30565853,145.1859799,21900.0,50.0,50.0,50.0,50.0,50.0,50.0,50.0,50.0,50.0,50.0,FY19-20,14000.0,50.0,50.0,50.0,50.0,50.0,50.0,50.0,50.0,50.0,50.0,FY20-21,10500.0,50.0,50.0,50.0,50.0,50.0,50.0,50.0,50.0,50.0,50.0,FY21-22,8300.0,50.0,50.0,50.0,50.0,50.0,50.0,50.0,50.0,50.0,50.0,FY22-23,13350.0,50.0,50.0,50.0,50.0,50.0,50.0,50.0,50.0,50.0,50.0,68050.0,250.0,250.0
306,2,Stony Point line,Tyabb,Mornington Peninsula S  ,6.0,FY18-19,19832.0,-38.259815,145.1864007,5600.0,50.0,50.0,50.0,50.0,50.0,50.0,50.0,50.0,50.0,50.0,FY19-20,3700.0,50.0,50.0,50.0,50.0,50.0,50.0,50.0,50.0,50.0,50.0,FY20-21,2700.0,50.0,50.0,50.0,50.0,50.0,50.0,50.0,50.0,50.0,50.0,FY21-22,2350.0,50.0,50.0,50.0,50.0,50.0,50.0,50.0,50.0,50.0,50.0,FY22-23,3400.0,50.0,50.0,50.0,50.0,50.0,50.0,50.0,50.0,50.0,50.0,17750.0,250.0,250.0
307,2,Stony Point line,Somerville,Mornington Peninsula S  ,7.0,FY18-19,19833.0,-38.22534196,145.1762449,13150.0,50.0,50.0,50.0,50.0,50.0,50.0,50.0,50.0,50.0,50.0,FY19-20,8950.0,50.0,50.0,50.0,50.0,50.0,50.0,50.0,50.0,50.0,50.0,FY20-21,4950.0,50.0,50.0,50.0,50.0,50.0,50.0,50.0,50.0,50.0,50.0,FY21-22,4500.0,50.0,50.0,50.0,50.0,50.0,50.0,50.0,50.0,50.0,50.0,FY22-23,7250.0,50.0,50.0,50.0,50.0,50.0,50.0,50.0,50.0,50.0,50.0,38800.0,250.0,250.0
308,2,Stony Point line,Baxter,Mornington Peninsula S  ,8.0,FY18-19,19834.0,-38.19404306,145.1605261,3400.0,50.0,50.0,50.0,50.0,50.0,50.0,50.0,50.0,50.0,50.0,FY19-20,2000.0,50.0,50.0,50.0,50.0,50.0,50.0,50.0,50.0,50.0,50.0,FY20-21,1850.0,50.0,50.0,50.0,50.0,50.0,50.0,50.0,50.0,50.0,50.0,FY21-22,1500.0,50.0,50.0,50.0,50.0,50.0,50.0,50.0,50.0,50.0,50.0,FY22-23,2150.0,50.0,50.0,50.0,50.0,50.0,50.0,50.0,50.0,50.0,50.0,10900.0,250.0,250.0
309,2,Stony Point line,Leawarra,Frankston C  ,10.0,FY18-19,19836.0,-38.152034,145.139534,10250.0,50.0,50.0,50.0,50.0,50.0,50.0,50.0,50.0,50.0,50.0,FY19-20,6750.0,50.0,50.0,50.0,50.0,50.0,50.0,50.0,50.0,50.0,50.0,FY20-21,4250.0,50.0,50.0,50.0,50.0,50.0,50.0,50.0,50.0,50.0,50.0,FY21-22,4150.0,50.0,50.0,50.0,50.0,50.0,50.0,50.0,50.0,50.0,50.0,FY22-23,5550.0,50.0,50.0,50.0,50.0,50.0,50.0,50.0,50.0,50.0,50.0,30950.0,250.0,250.0
310,2,Stony Point line,Frankston,Frankston C  ,25.0,FY18-19,19855.0,-38.14299007,145.1261623,1296500.0,4000.0,4150.0,3600.0,2900.0,2250.0,750.0,1300.0,1050.0,900.0,150.0,FY19-20,896100.0,2750.0,2850.0,2550.0,2200.0,1350.0,500.0,850.0,750.0,600.0,100.0,FY20-21,576400.0,1700.0,1650.0,1900.0,1500.0,1050.0,200.0,400.0,500.0,400.0,100.0,FY21-22,692750.0,2050.0,2000.0,2200.0,1750.0,1300.0,300.0,550.0,600.0,450.0,100.0,FY22-23,1022400.0,3050.0,3100.0,2850.0,2750.0,1950.0,500.0,750.0,900.0,750.0,150.0,4484150.0,3850.0,3100.0
311,2,Upfield line,Upfield,Hume C  ,128.0,FY18-19,19960.0,-37.66607779,144.9467399,366300.0,1200.0,1250.0,1000.0,650.0,500.0,150.0,450.0,300.0,300.0,50.0,FY19-20,3151600.0,10650.0,11650.0,7250.0,5250.0,3450.0,350.0,3350.0,2600.0,4450.0,950.0,FY20-21,147300.0,500.0,400.0,750.0,250.0,200.0,50.0,100.0,100.0,150.0,50.0,FY21-22,1997050.0,6350.0,6700.0,5050.0,4300.0,3000.0,200.0,1400.0,1600.0,2850.0,600.0,FY22-23,225650.0,700.0,750.0,650.0,450.0,350.0,50.0,200.0,200.0,250.0,50.0,5887900.0,5500.0,8000.0
312,2,Upfield line,Gowrie,Merri-Bec,129.0,FY18-19,19961.0,-37.700678,144.9588743,321300.0,1050.0,1050.0,950.0,650.0,500.0,150.0,500.0,250.0,150.0,50.0,FY19-20,284700.0,950.0,1000.0,850.0,500.0,350.0,100.0,300.0,250.0,300.0,50.0,FY20-21,112050.0,350.0,350.0,400.0,250.0,150.0,50.0,100.0,100.0,50.0,50.0,FY21-22,185850.0,600.0,650.0,500.0,350.0,250.0,50.0,150.0,150.0,200.0,50.0,FY22-23,201250.0,650.0,650.0,550.0,450.0,350.0,50.0,300.0,150.0,100.0,50.0,1105150.0,1350.0,800.0
313,1&2,Upfield line,Fawkner,Merri-Bec,130.0,FY18-19,19962.0,-37.71462129,144.960545,215100.0,700.0,700.0,650.0,400.0,350.0,100.0,300.0,150.0,100.0,50.0,FY19-20,258500.0,850.0,850.0,750.0,500.0,350.0,100.0,400.0,200.0,150.0,50.0,FY20-21,66600.0,200.0,200.0,250.0,150.0,100.0,50.0,100.0,50.0,50.0,50.0,FY21-22,153350.0,500.0,500.0,450.0,350.0,250.0,50.0,200.0,100.0,100.0,50.0,FY22-23,124050.0,400.0,400.0,350.0,250.0,200.0,50.0,200.0,100.0,50.0,50.0,817600.0,1200.0,450.0
314,1&2,Upfield line,Merlynston,Merri-Bec,131.0,FY18-19,19963.0,-37.72093389,144.9613135,392850.0,1300.0,1350.0,1150.0,700.0,550.0,150.0,750.0,250.0,150.0,50.0,FY19-20,165300.0,550.0,550.0,500.0,300.0,250.0,100.0,250.0,100.0,100.0,50.0,FY20-21,126950.0,400.0,400.0,450.0,250.0,200.0,50.0,150.0,100.0,50.0,50.0,FY21-22,86400.0,250.0,300.0,250.0,200.0,150.0,50.0,100.0,50.0,50.0,50.0,FY22-23,194300.0,600.0,650.0,550.0,400.0,300.0,50.0,300.0,150.0,100.0,50.0,965800.0,1550.0,450.0
315,1&2,Upfield line,Batman,Merri-Bec,132.0,FY18-19,19964.0,-37.73352285,144.9628406,334900.0,1100.0,1100.0,1000.0,650.0,500.0,100.0,550.0,200.0,200.0,50.0,FY19-20,296300.0,1000.0,1000.0,900.0,500.0,350.0,150.0,550.0,200.0,100.0,50.0,FY20-21,116250.0,350.0,350.0,400.0,250.0,150.0,50.0,150.0,100.0,100.0,50.0,FY21-22,154400.0,500.0,500.0,450.0,350.0,250.0,50.0,250.0,100.0,100.0,50.0,FY22-23,185900.0,600.0,600.0,550.0,400.0,300.0,50.0,250.0,150.0,150.0,50.0,1087750.0,1750.0,650.0
316,1,Upfield line,Coburg,Merri-Bec,133.0,FY18-19,19965.0,-37.74234502,144.9633363,728500.0,2350.0,2400.0,2150.0,1450.0,1050.0,250.0,1100.0,600.0,400.0,100.0,FY19-20,257000.0,850.0,900.0,750.0,450.0,350.0,100.0,450.0,150.0,150.0,50.0,FY20-21,145500.0,450.0,400.0,600.0,350.0,200.0,50.0,150.0,100.0,100.0,50.0,FY21-22,142200.0,450.0,450.0,400.0,300.0,250.0,50.0,150.0,100.0,100.0,50.0,FY22-23,399550.0,1250.0,1250.0,1150.0,900.0,650.0,100.0,500.0,300.0,300.0,50.0,1672750.0,2350.0,1050.0
317,1,Upfield line,Moreland,Merri-Bec,134.0,FY18-19,19966.0,-37.75448484,144.961823,380850.0,1250.0,1250.0,1150.0,750.0,550.0,100.0,600.0,250.0,250.0,50.0,FY19-20,508700.0,1650.0,1700.0,1550.0,950.0,650.0,150.0,700.0,450.0,300.0,50.0,FY20-21,91250.0,300.0,300.0,300.0,200.0,150.0,50.0,100.0,50.0,100.0,50.0,FY21-22,272750.0,850.0,850.0,750.0,700.0,450.0,50.0,300.0,250.0,200.0,50.0,FY22-23,278950.0,900.0,900.0,800.0,600.0,450.0,50.0,300.0,200.0,300.0,50.0,1532500.0,2000.0,1150.0
318,1,Upfield line,Anstey,Merri-Bec,135.0,FY18-19,19967.0,-37.76124203,144.960684,468600.0,1500.0,1500.0,1400.0,1000.0,700.0,100.0,800.0,300.0,250.0,50.0,FY19-20,272400.0,900.0,900.0,800.0,500.0,350.0,50.0,400.0,200.0,200.0,50.0,FY20-21,159900.0,500.0,500.0,500.0,400.0,250.0,50.0,200.0,150.0,100.0,50.0,FY21-22,266400.0,800.0,850.0,650.0,700.0,450.0,50.0,250.0,200.0,250.0,50.0,FY22-23,263200.0,800.0,850.0,750.0,600.0,450.0,50.0,400.0,150.0,150.0,50.0,1430500.0,2050.0,950.0
319,1,Upfield line,Brunswick,Merri-Bec,136.0,FY18-19,19968.0,-37.76772055,144.9595865,395250.0,1250.0,1250.0,1150.0,900.0,650.0,50.0,500.0,300.0,350.0,100.0,FY19-20,357050.0,1150.0,1200.0,1050.0,700.0,500.0,100.0,600.0,250.0,200.0,50.0,FY20-21,155350.0,500.0,500.0,500.0,350.0,250.0,50.0,100.0,150.0,200.0,50.0,FY21-22,187400.0,550.0,600.0,500.0,500.0,300.0,50.0,250.0,150.0,150.0,50.0,FY22-23,234900.0,700.0,750.0,650.0,550.0,400.0,50.0,200.0,150.0,300.0,50.0,1329950.0,1650.0,1200.0
320,1,Upfield line,Jewell,Merri-Bec,137.0,FY18-19,19969.0,-37.77498702,144.9587169,422900.0,1350.0,1400.0,1200.0,850.0,700.0,50.0,450.0,350.0,450.0,100.0,FY19-20,304300.0,950.0,1000.0,850.0,650.0,450.0,50.0,350.0,250.0,300.0,100.0,FY20-21,135400.0,400.0,400.0,400.0,300.0,200.0,50.0,100.0,100.0,150.0,50.0,FY21-22,167400.0,500.0,500.0,450.0,450.0,300.0,50.0,150.0,100.0,200.0,50.0,FY22-23,253550.0,800.0,800.0,700.0,550.0,400.0,50.0,250.0,200.0,300.0,50.0,1283550.0,1300.0,1400.0
321,1,Upfield line,Royal Park,Melbourne C  ,138.0,FY18-19,19970.0,-37.78119293,144.9523013,357050.0,1100.0,1050.0,1200.0,800.0,650.0,50.0,200.0,300.0,450.0,50.0,FY19-20,315750.0,1000.0,1050.0,850.0,600.0,450.0,50.0,350.0,250.0,350.0,100.0,FY20-21,117850.0,350.0,350.0,500.0,250.0,200.0,50.0,50.0,100.0,150.0,50.0,FY21-22,178100.0,550.0,550.0,450.0,450.0,300.0,50.0,150.0,150.0,200.0,50.0,FY22-23,241700.0,750.0,700.0,900.0,500.0,500.0,50.0,100.0,200.0,300.0,50.0,1210450.0,850.0,1450.0
322,1,Upfield line,Flemington Bridge,Moonee Valley C  ,139.0,FY18-19,19971.0,-37.78813995,144.9393233,286650.0,900.0,950.0,850.0,650.0,450.0,50.0,350.0,250.0,250.0,50.0,FY19-20,269450.0,850.0,850.0,900.0,550.0,450.0,50.0,150.0,250.0,400.0,50.0,FY20-21,94250.0,300.0,300.0,300.0,200.0,150.0,50.0,50.0,100.0,100.0,50.0,FY21-22,156050.0,450.0,450.0,550.0,350.0,300.0,50.0,50.0,150.0,200.0,50.0,FY22-23,184050.0,600.0,600.0,500.0,400.0,300.0,50.0,150.0,200.0,200.0,50.0,990450.0,750.0,1150.0
323,1,Upfield line,Macaulay,Melbourne C  ,140.0,FY18-19,19972.0,-37.79426673,144.9361663,289550.0,950.0,1000.0,850.0,500.0,350.0,50.0,150.0,250.0,500.0,50.0,FY19-20,225150.0,750.0,750.0,650.0,450.0,300.0,50.0,250.0,250.0,200.0,50.0,FY20-21,101750.0,350.0,350.0,300.0,200.0,150.0,50.0,50.0,100.0,150.0,50.0,FY21-22,123200.0,400.0,400.0,350.0,300.0,200.0,50.0,100.0,100.0,100.0,50.0,FY22-23,191800.0,600.0,650.0,550.0,400.0,300.0,50.0,100.0,200.0,300.0,50.0,931450.0,650.0,1250.0
324,1,Upfield line,North Melbourne,Melbourne C  ,216.0,FY18-19,19973.0,-37.80630984,144.9415102,1497300.0,4550.0,4700.0,3950.0,3400.0,3350.0,100.0,700.0,950.0,2500.0,450.0,FY19-20,10865600.0,36300.0,38250.0,29850.0,17100.0,13850.0,200.0,1300.0,7850.0,21750.0,7150.0,FY20-21,2213650.0,7900.0,8150.0,7050.0,2350.0,1550.0,50.0,300.0,1600.0,5250.0,950.0,FY21-22,2911250.0,10300.0,10800.0,8400.0,3750.0,2300.0,100.0,450.0,2000.0,7000.0,1300.0,FY22-23,1144850.0,3400.0,3500.0,3100.0,3200.0,2350.0,150.0,550.0,750.0,1700.0,350.0,18632650.0,3300.0,38200.0
325,1,Upfield line,Melbourne Central,Melbourne C  ,212.0,FY18-19,19842.0,-37.80993877,144.9625935,15250700.0,51500.0,53150.0,45000.0,23850.0,18950.0,300.0,1700.0,10400.0,30350.0,10450.0,FY19-20,184700.0,650.0,700.0,500.0,200.0,150.0,100.0,350.0,100.0,150.0,50.0,FY20-21,70900.0,250.0,250.0,200.0,150.0,100.0,50.0,100.0,50.0,50.0,50.0,FY21-22,87950.0,300.0,300.0,250.0,150.0,100.0,50.0,150.0,50.0,50.0,50.0,FY22-23,8626300.0,29000.0,30600.0,22700.0,13700.0,10550.0,250.0,1300.0,7100.0,17050.0,4950.0,24220550.0,3600.0,47650.0
326,1,Upfield line,Flagstaff,Melbourne C  ,211.0,FY18-19,19841.0,-37.81198131,144.9556538,4854950.0,18500.0,19300.0,15400.0,2600.0,1850.0,100.0,750.0,2600.0,14050.0,1750.0,FY19-20,441650.0,1300.0,1300.0,1300.0,1150.0,900.0,100.0,300.0,400.0,450.0,100.0,FY20-21,103900.0,350.0,400.0,200.0,150.0,100.0,50.0,100.0,50.0,150.0,50.0,FY21-22,115350.0,400.0,450.0,200.0,150.0,100.0,50.0,150.0,50.0,200.0,50.0,FY22-23,2758300.0,10250.0,11000.0,7550.0,2150.0,1550.0,100.0,700.0,2100.0,7150.0,950.0,8274150.0,2000.0,22000.0
327,1,Upfield line,Parliament,Melbourne C  ,213.0,FY18-19,19843.0,-37.81105406,144.9729109,10124200.0,38000.0,39650.0,31600.0,7000.0,4850.0,150.0,1050.0,5300.0,28850.0,4200.0,FY19-20,181900.0,650.0,650.0,550.0,250.0,150.0,150.0,400.0,100.0,50.0,50.0,FY20-21,327900.0,1100.0,1150.0,900.0,600.0,400.0,200.0,550.0,200.0,150.0,50.0,FY21-22,447850.0,1400.0,1500.0,1200.0,900.0,650.0,250.0,750.0,300.0,150.0,50.0,FY22-23,4723950.0,17500.0,18700.0,12750.0,4000.0,2750.0,100.0,850.0,3100.0,12650.0,2050.0,15805800.0,3600.0,41850.0
328,1,Upfield line,Flinders Street,Melbourne C  ,214.0,FY18-19,19854.0,-37.81830513,144.9669643,28320650.0,93050.0,94900.0,85900.0,52050.0,38750.0,1900.0,4850.0,16650.0,55250.0,16250.0,FY19-20,527250.0,1800.0,1850.0,1600.0,800.0,500.0,500.0,900.0,250.0,150.0,50.0,FY20-21,1378000.0,5050.0,5200.0,4450.0,1200.0,800.0,100.0,350.0,900.0,3400.0,450.0,FY21-22,1681700.0,6100.0,6450.0,4900.0,1650.0,1100.0,100.0,400.0,1100.0,4300.0,550.0,FY22-23,18793400.0,56800.0,56700.0,57200.0,47800.0,35350.0,1350.0,3300.0,11200.0,29950.0,10900.0,50701000.0,9800.0,93050.0
329,1,Upfield line,Southern Cross,Melbourne C  ,218.0,FY18-19,22180.0,-37.81793643,144.9514112,19551450.0,68350.0,70650.0,59550.0,25200.0,19350.0,650.0,3450.0,10750.0,48000.0,7800.0,FY19-20,21503500.0,70500.0,72650.0,63400.0,39400.0,28950.0,1300.0,3950.0,13250.0,42400.0,11750.0,FY20-21,1292650.0,3450.0,3600.0,3050.0,3500.0,3050.0,100.0,450.0,650.0,1550.0,850.0,FY21-22,1966800.0,4650.0,4750.0,4300.0,7350.0,5750.0,100.0,550.0,700.0,2100.0,1250.0,FY22-23,10942400.0,35900.0,37050.0,31400.0,19550.0,16250.0,450.0,2400.0,6750.0,23000.0,4400.0,55256800.0,10800.0,117050.0
330,2,Werribee line,Werribee,Wyndham C  ,89.0,FY18-19,19921.0,-37.89937805,144.661118,1211200.0,4150.0,4250.0,3800.0,1750.0,1200.0,800.0,2000.0,850.0,550.0,100.0,FY19-20,833000.0,2750.0,3050.0,1700.0,1500.0,1100.0,200.0,1400.0,700.0,500.0,200.0,FY20-21,351350.0,1150.0,1150.0,1250.0,600.0,400.0,200.0,450.0,300.0,200.0,50.0,FY21-22,510850.0,1600.0,1650.0,1400.0,1150.0,800.0,100.0,650.0,400.0,400.0,100.0,FY22-23,806150.0,2600.0,2800.0,1750.0,1700.0,1100.0,150.0,1250.0,650.0,600.0,200.0,3712550.0,5750.0,2250.0
331,2,Werribee line,Hoppers Crossing,Wyndham C  ,90.0,FY18-19,19922.0,-37.88327618,144.7009549,1246950.0,4400.0,4550.0,3750.0,1600.0,1100.0,750.0,2150.0,850.0,700.0,100.0,FY19-20,1061600.0,3650.0,3750.0,3300.0,1500.0,1050.0,750.0,1700.0,750.0,450.0,50.0,FY20-21,349850.0,1200.0,1200.0,1150.0,550.0,350.0,200.0,400.0,300.0,250.0,50.0,FY21-22,532750.0,1700.0,1800.0,1500.0,1050.0,750.0,350.0,700.0,450.0,250.0,50.0,FY22-23,941250.0,3000.0,3000.0,3150.0,1850.0,1450.0,500.0,1250.0,700.0,450.0,100.0,4132400.0,6200.0,2100.0
332,2,Werribee line,Williams Landing,Wyndham C  ,208.0,FY18-19,46468.0,-37.86986533,144.7474447,1756650.0,6300.0,6500.0,5650.0,1850.0,1300.0,1000.0,3900.0,1100.0,450.0,100.0,FY19-20,355850.0,1250.0,1350.0,800.0,500.0,350.0,350.0,600.0,250.0,100.0,50.0,FY20-21,291000.0,900.0,950.0,850.0,600.0,450.0,100.0,300.0,200.0,250.0,50.0,FY21-22,347300.0,1050.0,1100.0,1000.0,800.0,550.0,150.0,400.0,250.0,250.0,50.0,FY22-23,188600.0,650.0,750.0,400.0,250.0,200.0,100.0,250.0,100.0,300.0,50.0,2939400.0,5450.0,1350.0
333,2,Werribee line,Aircraft,Hobsons Bay C  ,92.0,FY18-19,19924.0,-37.86660595,144.7608094,303150.0,1050.0,1050.0,950.0,450.0,350.0,200.0,500.0,150.0,150.0,50.0,FY19-20,944750.0,3250.0,3350.0,2900.0,1300.0,950.0,450.0,1800.0,650.0,400.0,50.0,FY20-21,70150.0,250.0,200.0,250.0,100.0,100.0,50.0,100.0,50.0,50.0,50.0,FY21-22,552750.0,1800.0,1900.0,1550.0,950.0,700.0,250.0,800.0,450.0,350.0,50.0,FY22-23,817350.0,2750.0,2800.0,2500.0,1350.0,1050.0,350.0,1350.0,600.0,450.0,50.0,2688150.0,4550.0,1400.0
334,1&2,Werribee line,Laverton,Hobsons Bay C  ,91.0,FY18-19,19923.0,-37.86369404,144.7726167,1196550.0,4200.0,4300.0,3800.0,1550.0,1100.0,550.0,2400.0,800.0,500.0,100.0,FY19-20,1079900.0,3750.0,3950.0,3200.0,1400.0,950.0,700.0,1850.0,750.0,600.0,100.0,FY20-21,596350.0,1950.0,2050.0,1650.0,1050.0,750.0,300.0,800.0,500.0,350.0,50.0,FY21-22,436400.0,1450.0,1550.0,1200.0,750.0,550.0,250.0,550.0,350.0,350.0,50.0,FY22-23,738900.0,2450.0,2550.0,2100.0,1250.0,950.0,400.0,1050.0,550.0,500.0,50.0,4048100.0,6650.0,2300.0
335,1&2,Werribee line,Westona,Hobsons Bay C  ,93.0,FY18-19,19925.0,-37.86516348,144.8134936,240150.0,850.0,900.0,550.0,350.0,250.0,100.0,400.0,150.0,200.0,50.0,FY19-20,248950.0,850.0,850.0,750.0,400.0,300.0,150.0,400.0,150.0,100.0,50.0,FY20-21,107350.0,350.0,400.0,250.0,150.0,100.0,50.0,100.0,100.0,150.0,50.0,FY21-22,73150.0,250.0,250.0,200.0,150.0,100.0,50.0,100.0,50.0,50.0,50.0,FY22-23,194950.0,600.0,650.0,550.0,400.0,300.0,100.0,250.0,100.0,150.0,50.0,864550.0,1250.0,650.0
336,1&2,Werribee line,Altona,Hobsons Bay C  ,94.0,FY18-19,19926.0,-37.8671476,144.8296447,302850.0,950.0,1000.0,850.0,600.0,450.0,100.0,450.0,200.0,150.0,50.0,FY19-20,212000.0,750.0,800.0,550.0,300.0,200.0,100.0,300.0,150.0,200.0,50.0,FY20-21,126100.0,400.0,350.0,400.0,300.0,250.0,50.0,100.0,100.0,100.0,50.0,FY21-22,137950.0,450.0,500.0,300.0,250.0,150.0,50.0,150.0,100.0,200.0,50.0,FY22-23,206550.0,700.0,750.0,450.0,350.0,250.0,50.0,250.0,150.0,300.0,50.0,985450.0,1250.0,950.0
337,1,Werribee line,Seaholme,Hobsons Bay C  ,95.0,FY18-19,19927.0,-37.86784231,144.8409577,106850.0,350.0,350.0,250.0,200.0,150.0,50.0,200.0,50.0,50.0,50.0,FY19-20,261900.0,850.0,850.0,750.0,550.0,400.0,100.0,350.0,200.0,150.0,50.0,FY20-21,39900.0,100.0,100.0,100.0,100.0,50.0,50.0,50.0,50.0,50.0,50.0,FY21-22,144800.0,450.0,450.0,400.0,400.0,300.0,50.0,150.0,150.0,100.0,50.0,FY22-23,226200.0,650.0,650.0,600.0,600.0,500.0,50.0,250.0,200.0,150.0,50.0,779650.0,1000.0,500.0
338,1,Werribee line,Newport,Hobsons Bay C  ,157.0,FY18-19,19994.0,-37.84271757,144.8835999,1334350.0,4400.0,4450.0,4050.0,2600.0,1700.0,400.0,2450.0,800.0,650.0,150.0,FY19-20,289450.0,1000.0,1050.0,850.0,400.0,250.0,100.0,550.0,200.0,200.0,50.0,FY20-21,497600.0,1600.0,1600.0,1450.0,1000.0,700.0,100.0,650.0,350.0,400.0,100.0,FY21-22,98800.0,300.0,300.0,300.0,200.0,150.0,50.0,150.0,100.0,100.0,50.0,FY22-23,1068800.0,3450.0,3550.0,3000.0,2100.0,1700.0,250.0,1800.0,650.0,650.0,150.0,3289000.0,5600.0,2000.0
339,1,Werribee line,Spotswood,Hobsons Bay C  ,158.0,FY18-19,19995.0,-37.83063888,144.8859335,344850.0,1150.0,1150.0,1100.0,600.0,450.0,100.0,550.0,250.0,200.0,50.0,FY19-20,1037400.0,3450.0,3600.0,3000.0,1950.0,1150.0,300.0,1900.0,650.0,550.0,150.0,FY20-21,122500.0,400.0,350.0,400.0,300.0,200.0,50.0,150.0,100.0,100.0,50.0,FY21-22,721500.0,2300.0,2400.0,1850.0,1550.0,1050.0,150.0,1100.0,500.0,550.0,150.0,FY22-23,258700.0,750.0,800.0,700.0,700.0,550.0,50.0,300.0,150.0,200.0,50.0,2484950.0,4000.0,1600.0
340,1,Werribee line,Yarraville,Maribyrnong C  ,159.0,FY18-19,19996.0,-37.81585044,144.8899337,998400.0,3350.0,3400.0,3050.0,1750.0,1250.0,250.0,1850.0,650.0,500.0,200.0,FY19-20,273300.0,900.0,900.0,850.0,500.0,350.0,50.0,400.0,200.0,200.0,50.0,FY20-21,368300.0,1150.0,1150.0,1150.0,800.0,550.0,50.0,500.0,300.0,250.0,100.0,FY21-22,170900.0,500.0,500.0,450.0,500.0,350.0,50.0,200.0,100.0,150.0,50.0,FY22-23,700050.0,2200.0,2300.0,1850.0,1550.0,1150.0,150.0,1100.0,450.0,450.0,150.0,2510950.0,4050.0,1550.0
341,1,Werribee line,Seddon,Maribyrnong C  ,160.0,FY18-19,19997.0,-37.80900514,144.8956716,467700.0,1600.0,1650.0,1400.0,700.0,450.0,100.0,1000.0,300.0,200.0,50.0,FY19-20,785800.0,2600.0,2650.0,2300.0,1450.0,1050.0,200.0,1400.0,500.0,400.0,150.0,FY20-21,168900.0,550.0,550.0,500.0,350.0,250.0,50.0,250.0,150.0,100.0,50.0,FY21-22,442450.0,1350.0,1400.0,1200.0,1000.0,750.0,100.0,650.0,300.0,300.0,100.0,FY22-23,335100.0,1050.0,1150.0,850.0,700.0,500.0,50.0,600.0,250.0,200.0,50.0,2199950.0,3900.0,1200.0
342,1,Werribee line,Footscray,Maribyrnong C  ,186.0,FY18-19,20025.0,-37.80108298,144.9031992,5332950.0,17700.0,18300.0,15300.0,9800.0,6550.0,750.0,5400.0,4750.0,6150.0,1250.0,FY19-20,191600.0,600.0,650.0,500.0,400.0,250.0,50.0,350.0,150.0,100.0,50.0,FY20-21,2056000.0,6550.0,6550.0,6450.0,4300.0,2900.0,350.0,1650.0,1900.0,2250.0,450.0,FY21-22,103450.0,350.0,350.0,300.0,250.0,150.0,50.0,150.0,100.0,50.0,50.0,FY22-23,129200.0,150.0,150.0,50.0,1400.0,100.0,50.0,50.0,50.0,50.0,100.0,7813200.0,7600.0,8600.0
343,1,Werribee line,South Kensington,Melbourne C  ,187.0,FY18-19,20026.0,-37.79953087,144.925469,412850.0,1400.0,1450.0,1300.0,650.0,450.0,100.0,700.0,300.0,300.0,50.0,FY19-20,4038750.0,13350.0,14050.0,11100.0,7550.0,4800.0,600.0,4100.0,3800.0,4650.0,900.0,FY20-21,127950.0,400.0,400.0,400.0,250.0,200.0,50.0,150.0,100.0,100.0,50.0,FY21-22,2783000.0,8800.0,9050.0,7900.0,6050.0,4150.0,450.0,2400.0,2450.0,3150.0,600.0,FY22-23,725000.0,2300.0,2350.0,2050.0,1450.0,1200.0,150.0,550.0,700.0,800.0,150.0,8087550.0,7900.0,9000.0
344,1,Werribee line,North Melbourne,Melbourne C  ,216.0,FY18-19,19973.0,-37.80630984,144.9415102,1497300.0,4550.0,4700.0,3950.0,3400.0,3350.0,100.0,700.0,950.0,2500.0,450.0,FY19-20,10865600.0,36300.0,38250.0,29850.0,17100.0,13850.0,200.0,1300.0,7850.0,21750.0,7150.0,FY20-21,2213650.0,7900.0,8150.0,7050.0,2350.0,1550.0,50.0,300.0,1600.0,5250.0,950.0,FY21-22,2911250.0,10300.0,10800.0,8400.0,3750.0,2300.0,100.0,450.0,2000.0,7000.0,1300.0,FY22-23,1144850.0,3400.0,3500.0,3100.0,3200.0,2350.0,150.0,550.0,750.0,1700.0,350.0,18632650.0,3300.0,38200.0
345,1,Werribee line,Flagstaff,Melbourne C  ,211.0,FY18-19,19841.0,-37.81198131,144.9556538,4854950.0,18500.0,19300.0,15400.0,2600.0,1850.0,100.0,750.0,2600.0,14050.0,1750.0,FY19-20,441650.0,1300.0,1300.0,1300.0,1150.0,900.0,100.0,300.0,400.0,450.0,100.0,FY20-21,103900.0,350.0,400.0,200.0,150.0,100.0,50.0,100.0,50.0,150.0,50.0,FY21-22,115350.0,400.0,450.0,200.0,150.0,100.0,50.0,150.0,50.0,200.0,50.0,FY22-23,2758300.0,10250.0,11000.0,7550.0,2150.0,1550.0,100.0,700.0,2100.0,7150.0,950.0,8274150.0,2000.0,22000.0
346,1,Werribee line,Melbourne Central,Melbourne C  ,212.0,FY18-19,19842.0,-37.80993877,144.9625935,15250700.0,51500.0,53150.0,45000.0,23850.0,18950.0,300.0,1700.0,10400.0,30350.0,10450.0,FY19-20,184700.0,650.0,700.0,500.0,200.0,150.0,100.0,350.0,100.0,150.0,50.0,FY20-21,70900.0,250.0,250.0,200.0,150.0,100.0,50.0,100.0,50.0,50.0,50.0,FY21-22,87950.0,300.0,300.0,250.0,150.0,100.0,50.0,150.0,50.0,50.0,50.0,FY22-23,8626300.0,29000.0,30600.0,22700.0,13700.0,10550.0,250.0,1300.0,7100.0,17050.0,4950.0,24220550.0,3600.0,47650.0
347,1,Werribee line,Parliament,Melbourne C  ,213.0,FY18-19,19843.0,-37.81105406,144.9729109,10124200.0,38000.0,39650.0,31600.0,7000.0,4850.0,150.0,1050.0,5300.0,28850.0,4200.0,FY19-20,181900.0,650.0,650.0,550.0,250.0,150.0,150.0,400.0,100.0,50.0,50.0,FY20-21,327900.0,1100.0,1150.0,900.0,600.0,400.0,200.0,550.0,200.0,150.0,50.0,FY21-22,447850.0,1400.0,1500.0,1200.0,900.0,650.0,250.0,750.0,300.0,150.0,50.0,FY22-23,4723950.0,17500.0,18700.0,12750.0,4000.0,2750.0,100.0,850.0,3100.0,12650.0,2050.0,15805800.0,3600.0,41850.0
348,1,Werribee line,Southern Cross,Melbourne C  ,218.0,FY18-19,22180.0,-37.81793643,144.9514112,19551450.0,68350.0,70650.0,59550.0,25200.0,19350.0,650.0,3450.0,10750.0,48000.0,7800.0,FY19-20,21503500.0,70500.0,72650.0,63400.0,39400.0,28950.0,1300.0,3950.0,13250.0,42400.0,11750.0,FY20-21,1292650.0,3450.0,3600.0,3050.0,3500.0,3050.0,100.0,450.0,650.0,1550.0,850.0,FY21-22,1966800.0,4650.0,4750.0,4300.0,7350.0,5750.0,100.0,550.0,700.0,2100.0,1250.0,FY22-23,10942400.0,35900.0,37050.0,31400.0,19550.0,16250.0,450.0,2400.0,6750.0,23000.0,4400.0,55256800.0,10800.0,117050.0
349,1,Williamstown line,Williamstown,Hobsons Bay C  ,154.0,FY18-19,19991.0,-37.86775292,144.9053233,161900.0,500.0,550.0,500.0,300.0,250.0,50.0,200.0,100.0,150.0,50.0,FY19-20,98200.0,300.0,350.0,250.0,200.0,150.0,50.0,200.0,50.0,50.0,50.0,FY20-21,64100.0,200.0,200.0,200.0,150.0,100.0,50.0,50.0,50.0,50.0,50.0,FY21-22,57050.0,200.0,200.0,150.0,150.0,100.0,50.0,100.0,50.0,50.0,50.0,FY22-23,120250.0,350.0,350.0,350.0,350.0,250.0,50.0,150.0,100.0,100.0,50.0,501500.0,700.0,400.0
350,1,Williamstown line,Williamstown Beach,Hobsons Bay C  ,155.0,FY18-19,19992.0,-37.86398189,144.8944837,202950.0,700.0,700.0,600.0,300.0,250.0,50.0,300.0,150.0,150.0,50.0,FY19-20,132850.0,400.0,450.0,400.0,250.0,250.0,50.0,200.0,100.0,100.0,50.0,FY20-21,78150.0,250.0,250.0,250.0,150.0,100.0,50.0,100.0,50.0,50.0,50.0,FY21-22,60150.0,150.0,150.0,200.0,200.0,100.0,50.0,50.0,50.0,50.0,50.0,FY22-23,141650.0,450.0,450.0,400.0,300.0,300.0,50.0,150.0,100.0,100.0,50.0,615750.0,800.0,450.0
351,1,Williamstown line,North Williamstown,Hobsons Bay C  ,156.0,FY18-19,19993.0,-37.85733348,144.8890695,364600.0,1300.0,1350.0,1100.0,500.0,300.0,100.0,700.0,250.0,250.0,50.0,FY19-20,162050.0,550.0,550.0,450.0,250.0,200.0,50.0,250.0,150.0,150.0,50.0,FY20-21,125500.0,400.0,450.0,400.0,200.0,150.0,50.0,150.0,100.0,100.0,50.0,FY21-22,69250.0,200.0,200.0,200.0,150.0,100.0,50.0,50.0,50.0,50.0,50.0,FY22-23,238350.0,750.0,800.0,650.0,450.0,350.0,50.0,350.0,200.0,150.0,50.0,959750.0,1500.0,700.0
352,1,Williamstown line,Newport,Hobsons Bay C  ,157.0,FY18-19,19994.0,-37.84271757,144.8835999,1334350.0,4400.0,4450.0,4050.0,2600.0,1700.0,400.0,2450.0,800.0,650.0,150.0,FY19-20,289450.0,1000.0,1050.0,850.0,400.0,250.0,100.0,550.0,200.0,200.0,50.0,FY20-21,497600.0,1600.0,1600.0,1450.0,1000.0,700.0,100.0,650.0,350.0,400.0,100.0,FY21-22,98800.0,300.0,300.0,300.0,200.0,150.0,50.0,150.0,100.0,100.0,50.0,FY22-23,1068800.0,3450.0,3550.0,3000.0,2100.0,1700.0,250.0,1800.0,650.0,650.0,150.0,3289000.0,5600.0,2000.0
353,1,Williamstown line,Spotswood,Hobsons Bay C  ,158.0,FY18-19,19995.0,-37.83063888,144.8859335,344850.0,1150.0,1150.0,1100.0,600.0,450.0,100.0,550.0,250.0,200.0,50.0,FY19-20,1037400.0,3450.0,3600.0,3000.0,1950.0,1150.0,300.0,1900.0,650.0,550.0,150.0,FY20-21,122500.0,400.0,350.0,400.0,300.0,200.0,50.0,150.0,100.0,100.0,50.0,FY21-22,721500.0,2300.0,2400.0,1850.0,1550.0,1050.0,150.0,1100.0,500.0,550.0,150.0,FY22-23,258700.0,750.0,800.0,700.0,700.0,550.0,50.0,300.0,150.0,200.0,50.0,2484950.0,4000.0,1600.0
354,1,Williamstown line,Yarraville,Maribyrnong C  ,159.0,FY18-19,19996.0,-37.81585044,144.8899337,998400.0,3350.0,3400.0,3050.0,1750.0,1250.0,250.0,1850.0,650.0,500.0,200.0,FY19-20,273300.0,900.0,900.0,850.0,500.0,350.0,50.0,400.0,200.0,200.0,50.0,FY20-21,368300.0,1150.0,1150.0,1150.0,800.0,550.0,50.0,500.0,300.0,250.0,100.0,FY21-22,170900.0,500.0,500.0,450.0,500.0,350.0,50.0,200.0,100.0,150.0,50.0,FY22-23,700050.0,2200.0,2300.0,1850.0,1550.0,1150.0,150.0,1100.0,450.0,450.0,150.0,2510950.0,4050.0,1550.0
355,1,Williamstown line,Seddon,Maribyrnong C  ,160.0,FY18-19,19997.0,-37.80900514,144.8956716,467700.0,1600.0,1650.0,1400.0,700.0,450.0,100.0,1000.0,300.0,200.0,50.0,FY19-20,785800.0,2600.0,2650.0,2300.0,1450.0,1050.0,200.0,1400.0,500.0,400.0,150.0,FY20-21,168900.0,550.0,550.0,500.0,350.0,250.0,50.0,250.0,150.0,100.0,50.0,FY21-22,442450.0,1350.0,1400.0,1200.0,1000.0,750.0,100.0,650.0,300.0,300.0,100.0,FY22-23,335100.0,1050.0,1150.0,850.0,700.0,500.0,50.0,600.0,250.0,200.0,50.0,2199950.0,3900.0,1200.0
356,1,Williamstown line,Footscray,Maribyrnong C  ,186.0,FY18-19,20025.0,-37.80108298,144.9031992,5332950.0,17700.0,18300.0,15300.0,9800.0,6550.0,750.0,5400.0,4750.0,6150.0,1250.0,FY19-20,191600.0,600.0,650.0,500.0,400.0,250.0,50.0,350.0,150.0,100.0,50.0,FY20-21,2056000.0,6550.0,6550.0,6450.0,4300.0,2900.0,350.0,1650.0,1900.0,2250.0,450.0,FY21-22,103450.0,350.0,350.0,300.0,250.0,150.0,50.0,150.0,100.0,50.0,50.0,FY22-23,129200.0,150.0,150.0,50.0,1400.0,100.0,50.0,50.0,50.0,50.0,100.0,7813200.0,7600.0,8600.0
357,1,Williamstown line,South Kensington,Melbourne C  ,187.0,FY18-19,20026.0,-37.79953087,144.925469,412850.0,1400.0,1450.0,1300.0,650.0,450.0,100.0,700.0,300.0,300.0,50.0,FY19-20,4038750.0,13350.0,14050.0,11100.0,7550.0,4800.0,600.0,4100.0,3800.0,4650.0,900.0,FY20-21,127950.0,400.0,400.0,400.0,250.0,200.0,50.0,150.0,100.0,100.0,50.0,FY21-22,2783000.0,8800.0,9050.0,7900.0,6050.0,4150.0,450.0,2400.0,2450.0,3150.0,600.0,FY22-23,725000.0,2300.0,2350.0,2050.0,1450.0,1200.0,150.0,550.0,700.0,800.0,150.0,8087550.0,7900.0,9000.0
358,1,Williamstown line,North Melbourne,Melbourne C  ,216.0,FY18-19,19973.0,-37.80630984,144.9415102,1497300.0,4550.0,4700.0,3950.0,3400.0,3350.0,100.0,700.0,950.0,2500.0,450.0,FY19-20,10865600.0,36300.0,38250.0,29850.0,17100.0,13850.0,200.0,1300.0,7850.0,21750.0,7150.0,FY20-21,2213650.0,7900.0,8150.0,7050.0,2350.0,1550.0,50.0,300.0,1600.0,5250.0,950.0,FY21-22,2911250.0,10300.0,10800.0,8400.0,3750.0,2300.0,100.0,450.0,2000.0,7000.0,1300.0,FY22-23,1144850.0,3400.0,3500.0,3100.0,3200.0,2350.0,150.0,550.0,750.0,1700.0,350.0,18632650.0,3300.0,38200.0
359,1,Williamstown line,Flagstaff,Melbourne C  ,211.0,FY18-19,19841.0,-37.81198131,144.9556538,4854950.0,18500.0,19300.0,15400.0,2600.0,1850.0,100.0,750.0,2600.0,14050.0,1750.0,FY19-20,441650.0,1300.0,1300.0,1300.0,1150.0,900.0,100.0,300.0,400.0,450.0,100.0,FY20-21,103900.0,350.0,400.0,200.0,150.0,100.0,50.0,100.0,50.0,150.0,50.0,FY21-22,115350.0,400.0,450.0,200.0,150.0,100.0,50.0,150.0,50.0,200.0,50.0,FY22-23,2758300.0,10250.0,11000.0,7550.0,2150.0,1550.0,100.0,700.0,2100.0,7150.0,950.0,8274150.0,2000.0,22000.0
360,1,Williamstown line,Melbourne Central,Melbourne C  ,212.0,FY18-19,19842.0,-37.80993877,144.9625935,15250700.0,51500.0,53150.0,45000.0,23850.0,18950.0,300.0,1700.0,10400.0,30350.0,10450.0,FY19-20,184700.0,650.0,700.0,500.0,200.0,150.0,100.0,350.0,100.0,150.0,50.0,FY20-21,70900.0,250.0,250.0,200.0,150.0,100.0,50.0,100.0,50.0,50.0,50.0,FY21-22,87950.0,300.0,300.0,250.0,150.0,100.0,50.0,150.0,50.0,50.0,50.0,FY22-23,8626300.0,29000.0,30600.0,22700.0,13700.0,10550.0,250.0,1300.0,7100.0,17050.0,4950.0,24220550.0,3600.0,47650.0
361,1,Williamstown line,Parliament,Melbourne C  ,213.0,FY18-19,19843.0,-37.81105406,144.9729109,10124200.0,38000.0,39650.0,31600.0,7000.0,4850.0,150.0,1050.0,5300.0,28850.0,4200.0,FY19-20,181900.0,650.0,650.0,550.0,250.0,150.0,150.0,400.0,100.0,50.0,50.0,FY20-21,327900.0,1100.0,1150.0,900.0,600.0,400.0,200.0,550.0,200.0,150.0,50.0,FY21-22,447850.0,1400.0,1500.0,1200.0,900.0,650.0,250.0,750.0,300.0,150.0,50.0,FY22-23,4723950.0,17500.0,18700.0,12750.0,4000.0,2750.0,100.0,850.0,3100.0,12650.0,2050.0,15805800.0,3600.0,41850.0
362,1,Williamstown line,Southern Cross,Melbourne C  ,218.0,FY18-19,22180.0,-37.81793643,144.9514112,19551450.0,68350.0,70650.0,59550.0,25200.0,19350.0,650.0,3450.0,10750.0,48000.0,7800.0,FY19-20,21503500.0,70500.0,72650.0,63400.0,39400.0,28950.0,1300.0,3950.0,13250.0,42400.0,11750.0,FY20-21,1292650.0,3450.0,3600.0,3050.0,3500.0,3050.0,100.0,450.0,650.0,1550.0,850.0,FY21-22,1966800.0,4650.0,4750.0,4300.0,7350.0,5750.0,100.0,550.0,700.0,2100.0,1250.0,FY22-23,10942400.0,35900.0,37050.0,31400.0,19550.0,16250.0,450.0,2400.0,6750.0,23000.0,4400.0,55256800.0,10800.0,117050.0
363,1,Williamstown line,Flinders Street,Melbourne C  ,214.0,FY18-19,19854.0,-37.81830513,144.9669643,28320650.0,93050.0,94900.0,85900.0,52050.0,38750.0,1900.0,4850.0,16650.0,55250.0,16250.0,FY19-20,527250.0,1800.0,1850.0,1600.0,800.0,500.0,500.0,900.0,250.0,150.0,50.0,FY20-21,1378000.0,5050.0,5200.0,4450.0,1200.0,800.0,100.0,350.0,900.0,3400.0,450.0,FY21-22,1681700.0,6100.0,6450.0,4900.0,1650.0,1100.0,100.0,400.0,1100.0,4300.0,550.0,FY22-23,18793400.0,56800.0,56700.0,57200.0,47800.0,35350.0,1350.0,3300.0,11200.0,29950.0,10900.0,50701000.0,9800.0,93050.0
